$GPGSA,A,1,,,,,,,,,,,,,,,*1E
$GNGSA,A,1,,,,,,,,,,,,,,,*00
$GPVTG,,T,,M,,N,,K,N*2C
$GPRMC,,V,,,,,,,,,,N*53
$GPGGA,,,,,,0,,,,,,,,*66
$GPGSV,3,1,12,13,73,077,35,15,66,306,37,17,12,105,30,24,33,261,31*7E
$GPGSV,3,2,12,28,37,050,37,05,24,181,,12,02,201,,18,19,312,*7C
$GPGSV,3,3,12,19,03,127,,20,47,241,,21,02,281,,30,11,064,*78
$GLGSV,3,1,10,10,49,241,32,09,64,022,33,07,71,172,29,06,19,153,*60
$GLGSV,3,2,10,18,05,050,,16,13,042,,11,00,000,,01,03,327,*6B
$GLGSV,3,3,10,17,04,004,,08,48,320,*67
$GPGSA,A,1,,,,,,,,,,,,,,,*1E
$GNGSA,A,1,,,,,,,,,,,,,,,*00
$GPVTG,,T,,M,,N,,K,N*2C
$GPRMC,,V,,,,,,,,,,N*53
$GPGGA,,,,,,0,,,,,,,,*66
$GPGSV,3,1,12,05,24,181,37,13,73,077,36,15,66,306,37,17,12,105,36*75
$GPGSV,3,2,12,18,19,312,28,20,47,241,34,24,33,261,36,28,37,050,35*7A
$GPGSV,3,3,12,12,02,201,,19,03,127,,21,02,281,,30,11,064,*7C
$GLGSV,3,1,10,10,49,241,37,06,19,153,30,09,64,022,35,07,71,172,38*60
$GLGSV,3,2,10,08,48,320,32,18,05,050,,16,13,042,,11,00,000,*6B
$GLGSV,3,3,10,01,03,327,,17,04,004,*66
$GPGSA,A,3,13,15,17,20,24,28,,,,,,,1.2,0.9,0.8*3E
$GNGSA,A,2,70,73,74,,,,,,,,,,1.2,0.9,0.8*2F
$GPVTG,185.8,T,185.8,M,1.1,N,2.1,K,D*25
$GPRMC,184553.44,A,4316.201213,N,00256.205432,W,1.1,185.8,231117,3.1,W,D*3F
$GPGGA,184553.44,4316.201213,N,00256.205432,W,2,06,0.9,15.0,M,51.0,M,,*4C
$GPGSV,3,1,12,05,24,181,37,13,73,077,36,15,66,306,37,17,12,105,36*75
$GPGSV,3,2,12,18,19,312,28,20,47,241,34,24,33,261,36,28,37,050,35*7A
$GPGSV,3,3,12,12,02,201,,19,03,127,,21,02,281,,30,11,064,*7C
$GLGSV,3,1,10,10,49,241,37,06,19,153,30,09,64,022,35,07,71,172,38*60
$GLGSV,3,2,10,08,48,320,32,18,05,050,,16,13,042,,11,00,000,*6B
$GLGSV,3,3,10,01,03,327,,17,04,004,*66
$GPGSA,A,3,05,13,15,17,18,20,24,28,,,,,1.2,0.9,0.8*32
$GNGSA,A,3,70,71,73,74,,,,,,,,,1.2,0.9,0.8*28
$GPVTG,185.8,T,185.8,M,1.1,N,2.1,K,D*25
$GPRMC,184554.44,A,4316.200948,N,00256.205211,W,1.1,185.8,231117,3.1,W,D*3B
$GPGGA,184554.44,4316.200948,N,00256.205211,W,2,08,0.9,15.0,M,51.0,M,,*46
$GPGSV,3,1,12,05,24,181,35,13,73,077,35,15,66,306,37,17,12,105,33*71
$GPGSV,3,2,12,18,19,312,30,20,47,240,35,24,33,261,34,28,37,050,34*70
$GPGSV,3,3,12,30,11,064,33,12,02,201,,19,03,127,,21,02,281,*7C
$GLGSV,3,1,10,10,49,241,34,06,19,153,28,09,64,022,34,07,71,172,35*66
$GLGSV,3,2,10,08,48,320,31,18,05,050,,16,13,042,,11,00,000,*68
$GLGSV,3,3,10,01,03,327,,17,04,004,*66
$GPGSA,A,3,05,13,15,17,18,20,24,28,,,,,1.2,0.9,0.8*32
$GNGSA,A,3,70,71,73,74,,,,,,,,,1.2,0.9,0.8*28
$GPVTG,196.6,T,196.6,M,2.9,N,5.3,K,D*2B
$GPRMC,184554.00,A,4316.198418,N,00256.206883,W,2.9,196.6,231117,3.1,W,D*34
$GPGGA,184554.00,4316.198418,N,00256.206883,W,2,08,0.9,17.0,M,51.0,M,,*4C
$GPGSV,3,1,12,05,24,181,34,13,73,077,35,15,66,306,36,17,12,105,33*71
$GPGSV,3,2,12,18,19,312,30,20,47,240,35,21,02,281,23,24,33,261,30*73
$GPGSV,3,3,12,28,37,050,32,30,11,064,33,12,02,201,,19,03,127,*7C
$GLGSV,3,1,10,10,49,241,32,06,19,153,28,09,64,022,33,07,71,172,35*67
$GLGSV,3,2,10,08,48,320,31,18,05,050,,16,13,042,,11,00,000,*68
$GLGSV,3,3,10,01,03,327,,17,04,004,*66
$GPGSA,A,3,05,13,15,17,18,20,24,28,30,,,,1.1,0.8,0.7*3C
$GNGSA,A,3,70,71,73,74,,,,,,,,,1.1,0.8,0.7*25
$GPVTG,190.4,T,190.4,M,2.8,N,5.2,K,D*2B
$GPRMC,184555.00,A,4316.197464,N,00256.207457,W,2.8,190.4,231117,3.1,W,D*30
$GPGGA,184555.00,4316.197464,N,00256.207457,W,2,09,0.8,18.0,M,51.0,M,,*42
$GPGSV,3,1,12,05,24,181,31,13,73,077,34,15,66,306,35,17,12,105,39*7C
$GPGSV,3,2,12,18,19,312,26,20,47,240,36,21,02,281,23,24,33,261,26*70
$GPGSV,3,3,12,28,37,050,33,30,11,064,30,12,02,201,,19,03,127,*7E
$GLGSV,3,1,10,10,49,241,30,06,19,153,30,09,64,022,34,07,71,172,34*6A
$GLGSV,3,2,10,08,48,320,32,18,05,050,,16,13,042,,11,00,000,*6B
$GLGSV,3,3,10,01,03,327,,17,04,004,*66
$GPGSA,A,3,05,13,15,17,18,20,21,24,28,30,,,1.0,0.8,0.7*3E
$GNGSA,A,3,70,71,73,74,,,,,,,,,1.0,0.8,0.7*24
$GPVTG,199.4,T,199.4,M,2.4,N,4.4,K,D*20
$GPRMC,184556.00,A,4316.195915,N,00256.205911,W,2.4,199.4,231117,3.1,W,D*32
$GPGGA,184556.00,4316.195915,N,00256.205911,W,2,10,0.8,19.0,M,51.0,M,,*4C
$GPGSV,3,1,12,05,24,181,37,13,73,077,36,15,66,306,38,17,12,105,39*75
$GPGSV,3,2,12,18,19,312,32,20,47,240,32,24,33,261,34,28,37,050,31*70
$GPGSV,3,3,12,30,11,064,28,12,02,201,,19,03,127,,21,02,281,*76
$GLGSV,3,1,10,10,49,241,34,06,19,153,30,09,64,022,35,07,71,172,38*63
$GLGSV,3,2,10,08,48,320,29,18,05,050,,16,13,042,,11,00,000,*61
$GLGSV,3,3,10,01,03,327,,17,04,004,*66
$GPGSA,A,3,05,13,15,17,18,20,21,24,28,30,,,1.1,0.8,0.8*30
$GNGSA,A,3,70,71,73,74,,,,,,,,,1.1,0.8,0.8*2A
$GPVTG,194.0,T,194.0,M,1.7,N,3.2,K,D*21
$GPRMC,184557.00,A,4316.194544,N,00256.207146,W,1.7,194.0,231117,3.1,W,D*3B
$GPGGA,184557.00,4316.194544,N,00256.207146,W,2,10,0.8,18.0,M,51.0,M,,*4D
$GPGSV,3,1,12,05,24,181,38,13,73,077,37,15,66,306,36,17,12,105,39*75
$GPGSV,3,2,12,18,19,312,31,20,47,240,33,21,02,281,21,24,33,261,33*75
$GPGSV,3,3,12,28,37,050,33,30,11,064,25,12,02,201,,19,03,127,*7A
$GLGSV,3,1,10,10,49,241,35,06,19,153,30,09,64,022,34,07,71,172,38*63
$GLGSV,3,2,10,08,48,320,33,18,05,050,,16,13,042,,11,00,000,*6A
$GLGSV,3,3,10,01,03,327,,17,04,004,*66
$GPGSA,A,3,05,13,15,17,18,20,24,28,30,,,,1.1,0.8,0.8*33
$GNGSA,A,3,70,71,73,74,,,,,,,,,1.1,0.8,0.8*2A
$GPVTG,197.3,T,197.3,M,2.2,N,4.0,K,D*22
$GPRMC,184558.00,A,4316.194473,N,00256.207494,W,2.2,197.3,231117,3.1,W,D*3D
$GPGGA,184558.00,4316.194473,N,00256.207494,W,2,09,0.8,17.0,M,51.0,M,,*4A
$GPGSV,3,1,12,05,24,181,35,13,73,077,36,15,66,306,37,17,12,105,38*79
$GPGSV,3,2,12,18,19,312,27,20,47,240,32,21,02,281,21,24,33,261,33*73
$GPGSV,3,3,12,28,37,050,34,30,11,064,23,12,02,201,,19,03,127,*7B
$GLGSV,3,1,10,10,49,241,35,06,19,153,31,09,64,022,35,07,71,172,37*6C
$GLGSV,3,2,10,08,48,320,30,18,05,050,,16,13,042,,11,00,000,*69
$GLGSV,3,3,10,01,03,327,,17,04,004,*66
$GPGSA,A,3,05,13,15,17,18,20,24,28,30,,,,1.1,0.8,0.8*33
$GNGSA,A,3,70,71,73,74,,,,,,,,,1.1,0.8,0.8*2A
$GPVTG,197.1,T,197.1,M,2.4,N,4.4,K,D*20
$GPRMC,184559.00,A,4316.193700,N,00256.207455,W,2.4,197.1,231117,3.1,W,D*35
$GPGGA,184559.00,4316.193700,N,00256.207455,W,2,09,0.8,18.0,M,51.0,M,,*49
$GPGSV,3,1,12,05,24,181,34,13,73,077,36,15,66,306,36,17,12,105,39*78
$GPGSV,3,2,12,18,19,312,29,20,47,240,35,21,02,281,21,24,33,261,32*7B
$GPGSV,3,3,12,28,37,050,34,30,11,064,28,12,02,201,,19,03,127,*70
$GLGSV,3,1,10,10,49,241,33,06,19,153,31,09,64,022,34,07,71,172,37*6B
$GLGSV,3,2,10,08,48,320,29,18,05,050,,16,13,042,,11,00,000,*61
$GLGSV,3,3,10,01,03,327,,17,04,004,*66
$GPGSA,A,3,05,13,15,17,18,20,24,28,30,,,,1.1,0.8,0.8*33
$GNGSA,A,3,70,71,73,74,,,,,,,,,1.1,0.8,0.8*2A
$GPVTG,183.5,T,183.5,M,2.2,N,4.1,K,D*23
$GPRMC,184600.00,A,4316.193128,N,00256.207362,W,2.2,183.5,231117,3.1,W,D*32
$GPGGA,184600.00,4316.193128,N,00256.207362,W,2,09,0.8,19.0,M,51.0,M,,*48
$GPGSV,3,1,12,05,24,181,35,13,73,077,34,15,66,306,36,17,12,105,38*7A
$GPGSV,3,2,12,18,19,312,28,20,47,240,35,21,02,281,21,24,33,261,30*78
$GPGSV,3,3,12,28,37,050,34,30,11,064,26,12,02,201,,19,03,127,*7E
$GLGSV,3,1,10,10,49,241,33,06,19,153,29,09,64,022,33,07,71,172,35*67
$GLGSV,3,2,10,08,48,320,28,18,05,050,,16,13,042,,11,00,000,*60
$GLGSV,3,3,10,01,03,327,,17,04,004,*66
$GPGSA,A,3,05,13,15,17,18,20,24,28,30,,,,1.1,0.8,0.8*33
$GNGSA,A,3,70,71,73,74,,,,,,,,,1.1,0.8,0.8*2A
$GPVTG,198.9,T,198.9,M,1.9,N,3.5,K,D*28
$GPRMC,184601.00,A,4316.192384,N,00256.207547,W,1.9,198.9,231117,3.1,W,D*39
$GPGGA,184601.00,4316.192384,N,00256.207547,W,2,09,0.8,20.0,M,51.0,M,,*47
$GPGSV,3,1,12,05,24,181,34,13,73,077,35,15,66,306,37,17,12,105,38*7B
$GPGSV,3,2,12,18,19,312,26,19,03,127,19,20,47,240,33,21,02,281,22*74
$GPGSV,3,3,12,24,33,261,29,28,37,050,32,30,11,064,28,12,02,201,*71
$GLGSV,3,1,10,10,49,241,35,06,19,153,29,09,64,022,33,07,71,172,35*61
$GLGSV,3,2,10,08,48,320,31,18,05,050,,16,13,042,,11,00,000,*68
$GLGSV,3,3,10,01,03,327,,17,04,004,*66
$GPGSA,A,3,05,13,15,17,18,20,24,28,30,,,,1.1,0.8,0.8*33
$GNGSA,A,3,70,71,73,74,,,,,,,,,1.1,0.8,0.8*2A
$GPVTG,174.6,T,174.6,M,1.9,N,3.6,K,D*2B
$GPRMC,184602.00,A,4316.191665,N,00256.207269,W,1.9,174.6,231117,3.1,W,D*35
$GPGGA,184602.00,4316.191665,N,00256.207269,W,2,09,0.8,21.0,M,51.0,M,,*47
$GPGSV,3,1,12,05,24,181,34,13,73,077,34,15,66,306,39,17,12,105,39*75
$GPGSV,3,2,12,18,19,312,28,20,47,240,35,24,33,261,29,28,37,050,31*70
$GPGSV,3,3,12,30,11,064,29,12,02,201,,19,03,127,,21,02,281,*77
$GLGSV,3,1,10,10,49,241,35,06,19,153,31,09,64,022,34,07,71,172,34*6E
$GLGSV,3,2,10,08,48,320,28,18,05,050,,16,13,042,,11,00,000,*60
$GLGSV,3,3,10,01,03,327,,17,04,004,*66
$GPGSA,A,3,05,13,15,17,18,20,24,28,30,,,,1.1,0.8,0.8*33
$GNGSA,A,3,70,71,73,74,,,,,,,,,1.1,0.8,0.8*2A
$GPVTG,198.6,T,198.6,M,2.2,N,4.1,K,D*23
$GPRMC,184603.00,A,4316.191280,N,00256.207558,W,2.2,198.6,231117,3.1,W,D*34
$GPGGA,184603.00,4316.191280,N,00256.207558,W,2,09,0.8,21.0,M,51.0,M,,*4C
$GPGSV,3,1,12,05,24,181,34,13,73,077,35,15,66,306,37,17,12,105,39*7A
$GPGSV,3,2,12,18,19,312,26,20,47,240,36,21,02,281,22,24,33,261,31*77
$GPGSV,3,3,12,28,37,050,34,30,11,064,23,12,02,201,,19,03,127,*7B
$GLGSV,3,1,10,10,49,241,34,06,19,153,30,09,64,022,33,16,13,042,13*6A
$GLGSV,3,2,10,07,71,172,35,08,48,320,28,18,05,050,,11,00,000,*60
$GLGSV,3,3,10,01,03,327,,17,04,004,*66
$GPGSA,A,3,05,13,15,17,18,20,24,28,30,,,,1.1,0.8,0.8*33
$GNGSA,A,3,70,71,73,74,,,,,,,,,1.1,0.8,0.8*2A
$GPVTG,200.0,T,200.0,M,2.8,N,5.2,K,D*2B
$GPRMC,184604.00,A,4316.190753,N,00256.207843,W,2.8,200.0,231117,3.1,W,D*30
$GPGGA,184604.00,4316.190753,N,00256.207843,W,2,09,0.8,21.0,M,51.0,M,,*46
$GPGSV,3,1,12,05,24,181,37,13,73,077,35,15,66,306,37,17,12,105,37*77
$GPGSV,3,2,12,18,19,312,26,20,47,240,36,24,33,261,30,28,37,050,33*77
$GPGSV,3,3,12,30,11,064,28,12,02,201,,19,03,127,,21,02,281,*76
$GLGSV,3,1,10,10,49,241,32,06,19,153,30,09,64,022,33,16,13,042,13*6C
$GLGSV,3,2,10,07,71,172,35,08,48,320,28,18,05,050,,11,00,000,*60
$GLGSV,3,3,10,01,03,327,,17,04,004,*66
$GPGSA,A,3,05,13,15,17,18,20,24,28,30,,,,1.1,0.8,0.8*33
$GNGSA,A,3,70,71,73,74,,,,,,,,,1.1,0.8,0.8*2A
$GPVTG,199.2,T,199.2,M,1.8,N,3.4,K,D*28
$GPRMC,184605.00,A,4316.190261,N,00256.207984,W,1.8,199.2,231117,3.1,W,D*3D
$GPGGA,184605.00,4316.190261,N,00256.207984,W,2,09,0.8,21.0,M,51.0,M,,*49
$GPGSV,3,1,12,05,24,181,36,13,73,077,35,15,66,306,36,17,12,105,39*79
$GPGSV,3,2,12,18,19,312,32,20,47,240,34,24,33,261,29,28,37,050,30*7B
$GPGSV,3,3,12,30,11,064,29,12,02,201,,19,03,127,,21,02,281,*77
$GLGSV,3,1,10,10,49,241,36,06,19,153,31,09,64,022,32,16,13,042,12*69
$GLGSV,3,2,10,07,71,172,36,08,48,320,31,18,05,050,,11,00,000,*6B
$GLGSV,3,3,10,01,03,327,,17,04,004,*66
$GPGSA,A,3,05,13,15,17,18,20,24,28,30,,,,1.1,0.8,0.8*33
$GNGSA,A,3,70,71,73,74,,,,,,,,,1.1,0.8,0.8*2A
$GPVTG,182.0,T,182.0,M,2.5,N,4.7,K,D*22
$GPRMC,184606.00,A,4316.189671,N,00256.208400,W,2.5,182.0,231117,3.1,W,D*3B
$GPGGA,184606.00,4316.189671,N,00256.208400,W,2,09,0.8,20.0,M,51.0,M,,*48
$GPGSV,3,1,12,05,24,181,32,13,73,077,36,15,66,306,35,17,12,105,38*7C
$GPGSV,3,2,12,18,19,312,29,20,47,240,34,21,02,281,19,24,33,261,32*71
$GPGSV,3,3,12,28,37,050,32,30,11,064,27,12,02,201,,19,03,127,*79
$GLGSV,3,1,10,10,49,241,36,06,19,153,31,09,64,022,33,16,13,042,12*68
$GLGSV,3,2,10,07,71,172,37,08,48,320,34,18,05,050,,11,00,000,*6F
$GLGSV,3,3,10,01,03,327,,17,04,004,*66
$GPGSA,A,3,05,13,15,17,18,20,24,28,30,,,,1.1,0.8,0.8*33
$GNGSA,A,3,70,71,73,74,,,,,,,,,1.1,0.8,0.8*2A
$GPVTG,182.9,T,182.9,M,1.7,N,3.1,K,D*22
$GPRMC,184607.00,A,4316.189076,N,00256.208608,W,1.7,182.9,231117,3.1,W,D*39
$GPGGA,184607.00,4316.189076,N,00256.208608,W,2,09,0.8,21.0,M,51.0,M,,*43
$GPGSV,3,1,12,05,24,181,33,13,73,077,37,15,66,306,31,17,12,105,40*77
$GPGSV,3,2,12,18,19,312,30,20,47,240,34,24,33,261,29,28,37,050,28*70
$GPGSV,3,3,12,30,11,064,29,12,02,201,,19,03,127,,21,02,281,*77
$GLGSV,3,1,10,10,49,241,36,06,19,153,31,09,64,022,33,16,13,042,12*68
$GLGSV,3,2,10,07,71,172,37,08,48,320,32,18,05,050,,11,00,000,*69
$GLGSV,3,3,10,01,03,327,,17,04,004,*66
$GPGSA,A,3,05,13,15,17,18,20,24,28,30,,,,1.1,0.8,0.8*33
$GNGSA,A,3,70,71,73,74,,,,,,,,,1.1,0.8,0.8*2A
$GPVTG,198.7,T,198.7,M,1.8,N,3.3,K,D*2F
$GPRMC,184608.00,A,4316.188589,N,00256.208858,W,1.8,198.7,231117,3.1,W,D*33
$GPGGA,184608.00,4316.188589,N,00256.208858,W,2,09,0.8,21.0,M,51.0,M,,*43
$GPGSV,3,1,12,05,24,181,36,13,73,077,34,15,66,306,39,17,12,105,38*76
$GPGSV,3,2,12,18,19,312,28,20,47,240,32,24,33,261,29,28,37,050,31*77
$GPGSV,3,3,12,30,11,064,29,12,02,201,,19,03,127,,21,02,281,*77
$GLGSV,3,1,10,10,49,241,36,06,19,153,30,09,64,022,32,07,71,172,36*68
$GLGSV,3,2,10,08,48,320,32,18,05,050,,16,13,042,,11,00,000,*6B
$GLGSV,3,3,10,01,03,327,,17,04,004,*66
$GPGSA,A,3,05,13,15,17,18,20,24,28,30,,,,1.1,0.8,0.8*33
$GNGSA,A,3,70,71,73,74,,,,,,,,,1.1,0.8,0.8*2A
$GPVTG,198.5,T,198.5,M,1.8,N,3.3,K,D*2F
$GPRMC,184609.00,A,4316.188104,N,00256.209015,W,1.8,198.5,231117,3.1,W,D*31
$GPGGA,184609.00,4316.188104,N,00256.209015,W,2,09,0.8,22.0,M,51.0,M,,*40
$GPGSV,3,1,12,05,24,181,33,13,73,077,33,15,66,306,38,17,12,105,34*79
$GPGSV,3,2,12,18,19,312,29,20,47,240,29,24,33,261,30,28,37,050,31*74
$GPGSV,3,3,12,30,11,064,26,12,02,201,,19,03,127,,21,02,281,*78
$GLGSV,3,1,10,10,49,241,36,06,19,153,30,09,64,022,33,07,71,172,37*68
$GLGSV,3,2,10,08,48,320,29,18,05,050,,16,13,042,,11,00,000,*61
$GLGSV,3,3,10,01,03,327,,17,04,004,*66
$GPGSA,A,3,05,13,15,17,18,20,24,28,30,,,,1.1,0.8,0.8*33
$GNGSA,A,3,70,71,73,74,,,,,,,,,1.1,0.8,0.8*2A
$GPVTG,198.6,T,198.6,M,1.9,N,3.5,K,D*28
$GPRMC,184610.00,A,4316.187638,N,00256.209133,W,1.9,198.6,231117,3.1,W,D*39
$GPGGA,184610.00,4316.187638,N,00256.209133,W,2,09,0.8,21.0,M,51.0,M,,*49
$GPGSV,3,1,12,05,24,181,38,13,73,077,33,15,66,306,36,17,12,105,33*7B
$GPGSV,3,2,12,18,19,312,33,20,47,240,34,24,33,261,34,28,37,050,31*77
$GPGSV,3,3,12,30,11,064,26,12,02,201,,19,03,127,,21,02,281,*78
$GLGSV,3,1,10,10,49,241,31,06,19,153,31,09,64,022,34,07,71,172,36*68
$GLGSV,3,2,10,08,48,320,31,18,05,050,,16,13,042,,11,00,000,*68
$GLGSV,3,3,10,01,03,327,,17,04,004,*66
$GPGSA,A,3,05,13,15,17,18,20,24,28,30,,,,1.1,0.8,0.8*33
$GNGSA,A,3,70,71,73,74,,,,,,,,,1.1,0.8,0.8*2A
$GPVTG,180.3,T,180.3,M,2.5,N,4.7,K,D*22
$GPRMC,184611.00,A,4316.187020,N,00256.209158,W,2.5,180.3,231117,3.1,W,D*39
$GPGGA,184611.00,4316.187020,N,00256.209158,W,2,09,0.8,21.0,M,51.0,M,,*4A
$GPGSV,3,1,12,05,24,181,38,13,73,077,33,15,66,306,36,17,12,105,36*7E
$GPGSV,3,2,12,18,19,312,34,20,47,240,36,24,33,261,35,28,37,050,32*70
$GPGSV,3,3,12,30,11,064,31,12,02,201,,19,03,127,,21,02,281,*7E
$GLGSV,3,1,10,10,49,241,32,06,19,153,27,09,64,022,34,07,71,172,33*69
$GLGSV,3,2,10,08,48,320,29,18,05,050,,16,13,042,,11,00,000,*61
$GLGSV,3,3,10,01,03,327,,17,04,004,*66
$GPGSA,A,3,05,13,15,17,18,20,24,28,30,,,,1.1,0.8,0.8*33
$GNGSA,A,3,70,71,73,74,,,,,,,,,1.1,0.8,0.8*2A
$GPVTG,188.8,T,188.8,M,2.7,N,5.0,K,D*26
$GPRMC,184612.00,A,4316.186276,N,00256.209238,W,2.7,188.8,231117,3.1,W,D*3E
$GPGGA,184612.00,4316.186276,N,00256.209238,W,2,09,0.8,21.0,M,51.0,M,,*4C
$GPGSV,3,1,11,05,24,181,39,13,73,077,32,15,66,306,36,17,12,105,37*7C
$GPGSV,3,2,11,18,19,312,32,20,47,240,34,24,33,261,33,28,37,050,32*71
$GPGSV,3,3,11,12,02,201,,19,03,127,,21,02,281,*4E
$GLGSV,3,1,10,10,49,241,33,06,19,153,31,09,64,022,35,07,71,172,36*6B
$GLGSV,3,2,10,08,48,320,27,18,05,050,,16,13,042,,11,00,000,*6F
$GLGSV,3,3,10,01,03,327,,17,04,004,*66
$GPGSA,A,3,05,13,15,17,18,20,24,28,,,,,1.1,0.8,0.8*30
$GNGSA,A,3,70,71,73,74,,,,,,,,,1.1,0.8,0.8*2A
$GPVTG,191.5,T,191.5,M,2.3,N,4.3,K,D*20
$GPRMC,184613.00,A,4316.185660,N,00256.209436,W,2.3,191.5,231117,3.1,W,D*36
$GPGGA,184613.00,4316.185660,N,00256.209436,W,2,08,0.8,20.0,M,51.0,M,,*45
$GPGSV,3,1,12,05,24,181,36,13,73,077,35,15,66,306,33,17,12,105,33*76
$GPGSV,3,2,12,18,19,312,30,19,03,127,24,20,47,240,32,24,33,261,33*75
$GPGSV,3,3,12,28,37,050,31,30,11,064,30,12,02,201,,21,02,281,*79
$GLGSV,3,1,10,10,49,241,36,06,19,153,30,09,64,022,31,07,71,172,40*6A
$GLGSV,3,2,10,08,48,320,32,18,05,050,,16,13,042,,11,00,000,*6B
$GLGSV,3,3,10,01,03,327,,17,04,004,*66
$GPGSA,A,3,05,13,15,17,18,20,24,28,30,,,,1.1,0.8,0.8*33
$GNGSA,A,3,70,71,73,74,,,,,,,,,1.1,0.8,0.8*2A
$GPVTG,230.5,T,230.5,M,1.7,N,3.2,K,D*21
$GPRMC,184614.00,A,4316.185196,N,00256.209786,W,1.7,230.5,231117,3.1,W,D*38
$GPGGA,184614.00,4316.185196,N,00256.209786,W,2,09,0.8,20.0,M,51.0,M,,*45
$GPGSV,3,1,12,05,24,181,36,13,73,077,35,15,66,306,33,17,12,105,33*76
$GPGSV,3,2,12,18,19,312,30,19,03,127,24,20,47,240,32,24,33,261,33*75
$GPGSV,3,3,12,28,37,050,31,30,11,064,30,12,02,201,,21,02,281,*79
$GLGSV,3,1,10,10,49,241,36,06,19,153,30,09,64,022,31,07,71,172,40*6A
$GLGSV,3,2,10,08,48,320,32,18,05,050,,16,13,042,,11,00,000,*6B
$GLGSV,3,3,10,01,03,327,,17,04,004,*66
$GPGSA,A,3,05,13,15,17,18,20,24,28,30,,,,1.1,0.8,0.8*33
$GNGSA,A,3,70,71,73,74,,,,,,,,,1.1,0.8,0.8*2A
$GPVTG,230.5,T,230.5,M,1.7,N,3.2,K,D*21
$GPRMC,184615.00,A,4316.184860,N,00256.210260,W,1.7,230.5,231117,3.1,W,D*3D
$GPGGA,184615.00,4316.184860,N,00256.210260,W,2,09,0.8,20.0,M,51.0,M,,*40
$GPGSV,3,1,12,05,24,181,38,13,73,077,34,15,66,306,35,17,12,105,34*78
$GPGSV,3,2,12,18,19,312,30,20,47,240,35,24,33,261,33,28,37,050,34*77
$GPGSV,3,3,12,30,11,064,33,12,02,201,,19,03,127,,21,02,281,*7C
$GLGSV,3,1,10,10,49,241,34,06,19,153,27,09,64,022,33,07,71,172,36*6D
$GLGSV,3,2,10,08,48,320,30,18,05,050,,16,13,042,,11,00,000,*69
$GLGSV,3,3,10,01,03,327,,17,04,004,*66
$GPGSA,A,3,05,13,15,17,18,20,24,28,30,,,,1.1,0.8,0.8*33
$GNGSA,A,3,70,71,73,74,,,,,,,,,1.1,0.8,0.8*2A
$GPVTG,220.6,T,220.6,M,1.9,N,3.5,K,D*28
$GPRMC,184616.00,A,4316.184574,N,00256.210805,W,1.9,220.6,231117,3.1,W,D*33
$GPGGA,184616.00,4316.184574,N,00256.210805,W,2,09,0.8,20.0,M,51.0,M,,*42
$GPGSV,3,1,12,05,24,181,34,13,73,077,36,15,66,306,37,17,12,105,34*74
$GPGSV,3,2,12,18,19,312,30,20,47,240,28,24,33,261,33,28,37,050,31*7E
$GPGSV,3,3,12,30,11,064,34,12,02,201,,19,03,127,,21,02,281,*7B
$GLGSV,3,1,10,10,49,241,35,06,19,153,28,09,64,022,33,07,71,172,31*64
$GLGSV,3,2,10,08,48,320,32,18,05,050,,16,13,042,,11,00,000,*6B
$GLGSV,3,3,10,01,03,327,,17,04,004,*66
$GPGSA,A,3,05,13,15,17,18,20,24,28,30,,,,1.1,0.8,0.8*33
$GNGSA,A,3,70,71,73,74,,,,,,,,,1.1,0.8,0.8*2A
$GPVTG,200.6,T,200.6,M,2.2,N,4.1,K,D*23
$GPRMC,184617.00,A,4316.184212,N,00256.211259,W,2.2,200.6,231117,3.1,W,D*3D
$GPGGA,184617.00,4316.184212,N,00256.211259,W,2,09,0.8,20.0,M,51.0,M,,*46
$GPGSV,3,1,12,05,24,181,36,13,73,077,37,15,66,306,37,17,12,105,38*7B
$GPGSV,3,2,12,18,19,312,30,20,47,240,32,24,33,261,34,28,37,050,34*77
$GPGSV,3,3,12,30,11,064,36,12,02,201,,19,03,127,,21,02,281,*79
$GLGSV,3,1,10,10,49,241,34,06,19,153,30,09,64,022,37,07,71,172,37*6E
$GLGSV,3,2,10,08,48,320,32,18,05,050,,16,13,042,,11,00,000,*6B
$GLGSV,3,3,10,01,03,327,,17,04,004,*66
$GPGSA,A,3,05,13,15,17,18,20,24,28,30,,,,1.1,0.8,0.8*33
$GNGSA,A,3,70,71,73,74,,,,,,,,,1.1,0.8,0.8*2A
$GPVTG,188.6,T,188.6,M,2.5,N,4.7,K,D*22
$GPRMC,184618.00,A,4316.183718,N,00256.211591,W,2.5,188.6,231117,3.1,W,D*3D
$GPGGA,184618.00,4316.183718,N,00256.211591,W,2,09,0.8,18.0,M,51.0,M,,*49
$GPGSV,3,1,12,05,24,181,34,13,73,077,36,15,66,306,37,17,12,105,34*74
$GPGSV,3,2,12,18,19,312,33,19,03,127,24,20,47,240,32,24,33,261,33*76
$GPGSV,3,3,12,28,37,050,34,30,11,064,30,12,02,201,,21,02,281,*7C
$GLGSV,3,1,10,10,49,241,37,06,19,153,31,09,64,022,36,07,71,172,38*62
$GLGSV,3,2,10,08,48,320,31,18,05,050,,16,13,042,,11,00,000,*68
$GLGSV,3,3,10,01,03,327,,17,04,004,*66
$GPGSA,A,3,05,13,15,17,18,20,24,28,30,,,,1.1,0.8,0.8*33
$GNGSA,A,3,70,71,73,74,,,,,,,,,1.1,0.8,0.8*2A
$GPVTG,184.2,T,184.2,M,2.7,N,4.9,K,D*2E
$GPRMC,184619.00,A,4316.183087,N,00256.211702,W,2.7,184.2,231117,3.1,W,D*3F
$GPGGA,184619.00,4316.183087,N,00256.211702,W,2,09,0.8,19.0,M,51.0,M,,*40
$GPGSV,3,1,11,05,24,181,38,13,73,077,35,15,66,306,37,17,12,105,34*78
$GPGSV,3,2,11,18,19,312,26,20,47,240,35,24,33,261,30,28,37,050,31*75
$GPGSV,3,3,11,30,11,064,27,12,02,201,,21,02,281,*45
$GLGSV,3,1,10,10,49,241,28,06,19,153,26,09,64,022,34,07,71,172,38*68
$GLGSV,3,2,10,08,48,320,27,18,05,050,,16,13,042,,11,00,000,*6F
$GLGSV,3,3,10,01,03,327,,17,04,004,*66
$GPGSA,A,3,05,13,15,17,18,20,24,28,30,,,,1.1,0.8,0.8*33
$GNGSA,A,3,70,71,73,74,,,,,,,,,1.1,0.8,0.8*2A
$GPVTG,189.7,T,189.7,M,2.4,N,4.4,K,D*20
$GPRMC,184620.00,A,4316.182413,N,00256.211853,W,2.4,189.7,231117,3.1,W,D*3D
$GPGGA,184620.00,4316.182413,N,00256.211853,W,2,09,0.8,19.0,M,51.0,M,,*49
$GPGSV,3,1,12,05,24,181,39,13,73,077,34,15,66,306,38,17,12,105,33*73
$GPGSV,3,2,12,18,19,312,30,19,03,127,24,20,47,240,35,24,33,261,32*73
$GPGSV,3,3,12,28,37,050,28,30,11,064,29,12,02,201,,21,02,281,*79
$GLGSV,3,1,10,10,49,241,34,06,19,153,35,09,64,022,34,07,71,172,38*67
$GLGSV,3,2,10,08,48,320,31,18,05,050,,16,13,042,,11,00,000,*68
$GLGSV,3,3,10,01,03,327,,17,04,004,*66
$GPGSA,A,3,05,13,15,17,18,20,24,28,30,,,,1.1,0.8,0.8*33
$GNGSA,A,3,70,71,73,74,,,,,,,,,1.1,0.8,0.8*2A
$GPVTG,195.4,T,195.4,M,2.0,N,3.8,K,D*2F
$GPRMC,184621.00,A,4316.181834,N,00256.212154,W,2.0,195.4,231117,3.1,W,D*31
$GPGGA,184621.00,4316.181834,N,00256.212154,W,2,09,0.8,19.0,M,51.0,M,,*4F
$GPGSV,3,1,11,05,24,181,39,13,73,077,32,15,66,306,36,17,12,105,32*79
$GPGSV,3,2,11,18,19,312,33,20,47,240,38,24,33,261,27,28,37,050,24*7E
$GPGSV,3,3,11,30,11,064,33,12,02,201,,21,02,281,*40
$GLGSV,3,1,10,10,49,241,29,06,19,153,33,09,64,022,31,07,71,172,32*62
$GLGSV,3,2,10,08,48,320,30,18,05,050,,16,13,042,,11,00,000,*69
$GLGSV,3,3,10,01,03,327,,17,04,004,*66
$GPGSA,A,3,05,13,15,17,18,20,24,28,30,,,,1.1,0.8,0.8*33
$GNGSA,A,3,70,71,73,74,,,,,,,,,1.1,0.8,0.8*2A
$GPVTG,191.5,T,191.5,M,2.0,N,3.7,K,D*20
$GPRMC,184622.00,A,4316.181344,N,00256.212471,W,2.0,191.5,231117,3.1,W,D*39
$GPGGA,184622.00,4316.181344,N,00256.212471,W,2,09,0.8,19.0,M,51.0,M,,*42
$GPGSV,3,1,12,05,24,181,36,13,73,077,35,15,66,306,35,17,12,105,34*77
$GPGSV,3,2,12,18,19,312,31,19,03,127,24,20,47,240,37,24,33,261,26*75
$GPGSV,3,3,12,28,37,050,28,30,11,064,32,12,02,201,,21,02,281,*73
$GLGSV,3,1,10,10,49,241,30,06,19,153,34,09,64,022,31,07,71,172,33*6C
$GLGSV,3,2,10,08,48,320,32,18,05,050,,16,13,042,,11,00,000,*6B
$GLGSV,3,3,10,01,03,327,,17,04,004,*66
$GPGSA,A,3,05,13,15,17,18,20,24,28,30,,,,1.1,0.8,0.8*33
$GNGSA,A,3,70,71,73,74,,,,,,,,,1.1,0.8,0.8*2A
$GPVTG,191.5,T,191.5,M,1.8,N,3.3,K,D*2F
$GPRMC,184623.00,A,4316.180850,N,00256.212825,W,1.8,191.5,231117,3.1,W,D*31
$GPGGA,184623.00,4316.180850,N,00256.212825,W,2,09,0.8,19.0,M,51.0,M,,*41
$GPGSV,3,1,12,05,24,181,38,13,73,077,34,15,66,306,35,17,12,105,33*7F
$GPGSV,3,2,12,18,19,312,31,19,03,127,24,20,47,240,33,24,33,261,33*75
$GPGSV,3,3,12,28,37,050,28,30,11,064,28,12,02,201,,21,02,281,*78
$GLGSV,3,1,10,10,49,241,35,06,19,153,31,09,64,022,31,07,71,172,39*66
$GLGSV,3,2,10,08,48,320,33,18,05,050,,16,13,042,,11,00,000,*6A
$GLGSV,3,3,10,01,03,327,,17,04,004,*66
$GPGSA,A,3,05,13,15,17,18,20,24,28,30,,,,1.1,0.8,0.8*33
$GNGSA,A,3,70,71,73,74,,,,,,,,,1.1,0.8,0.8*2A
$GPVTG,193.4,T,193.4,M,2.0,N,3.8,K,D*2F
$GPRMC,184624.00,A,4316.180369,N,00256.213182,W,2.0,193.4,231117,3.1,W,D*3A
$GPGGA,184624.00,4316.180369,N,00256.213182,W,2,09,0.8,19.0,M,51.0,M,,*42
$GPGSV,3,1,12,05,24,181,41,13,73,077,33,15,66,306,40,17,12,105,32*75
$GPGSV,3,2,12,18,19,312,30,19,03,127,29,20,47,240,37,24,33,261,38*76
$GPGSV,3,3,12,28,37,050,37,30,11,064,35,12,02,201,,21,02,281,*7A
$GLGSV,3,1,10,10,49,241,40,06,19,153,34,09,64,022,37,07,71,172,39*67
$GLGSV,3,2,10,08,48,320,32,18,05,050,,16,13,042,,11,00,000,*6B
$GLGSV,3,3,10,01,03,327,,17,04,004,*66
$GPGSA,A,3,05,13,15,17,18,20,24,28,30,,,,1.1,0.8,0.8*33
$GNGSA,A,3,70,71,73,74,,,,,,,,,1.1,0.8,0.8*2A
$GPVTG,185.4,T,185.4,M,1.9,N,3.6,K,D*2B
$GPRMC,184625.00,A,4316.179809,N,00256.213348,W,1.9,185.4,231117,3.1,W,D*39
$GPGGA,184625.00,4316.179809,N,00256.213348,W,2,09,0.8,18.0,M,51.0,M,,*4D
$GPGSV,3,1,12,05,24,181,35,13,73,077,35,15,66,306,34,17,12,105,37*76
$GPGSV,3,2,12,18,19,312,30,19,03,127,29,20,47,240,36,24,33,261,35*7A
$GPGSV,3,3,12,28,37,050,37,30,11,064,36,12,02,201,,21,02,281,*79
$GLGSV,3,1,09,10,49,241,34,06,19,153,33,09,64,022,36,07,71,172,39*6A
$GLGSV,3,2,09,18,05,050,,16,13,042,,11,00,000,,01,03,327,*63
$GLGSV,3,3,09,17,04,004,*5A
$GPGSA,A,3,05,13,15,17,18,20,24,28,30,,,,1.1,0.8,0.8*33
$GNGSA,A,3,70,71,73,74,,,,,,,,,1.1,0.8,0.8*2A
$GPVTG,185.6,T,185.6,M,2.4,N,4.4,K,D*20
$GPRMC,184626.00,A,4316.179183,N,00256.213424,W,2.4,185.6,231117,3.1,W,D*30
$GPGGA,184626.00,4316.179183,N,00256.213424,W,2,09,0.8,17.0,M,51.0,M,,*47
$GPGSV,3,1,11,05,24,181,38,13,73,077,38,15,66,306,33,17,12,105,36*73
$GPGSV,3,2,11,18,19,312,35,20,47,240,42,24,33,261,41,28,37,050,40*77
$GPGSV,3,3,11,30,11,064,31,12,02,201,,21,02,281,*42
$GLGSV,3,1,10,10,49,241,39,06,19,153,34,09,64,022,33,07,71,172,36*62
$GLGSV,3,2,10,08,48,320,28,18,05,050,,16,13,042,,11,00,000,*60
$GLGSV,3,3,10,01,03,327,,17,04,004,*66
$GPGSA,A,3,05,13,15,17,18,20,24,28,30,,,,1.1,0.8,0.8*33
$GNGSA,A,3,70,71,73,74,,,,,,,,,1.1,0.8,0.8*2A
$GPVTG,174.4,T,174.4,M,2.9,N,5.3,K,D*2B
$GPRMC,184627.00,A,4316.178454,N,00256.213338,W,2.9,174.4,231117,3.1,W,D*34
$GPGGA,184627.00,4316.178454,N,00256.213338,W,2,09,0.8,17.0,M,51.0,M,,*42
$GPGSV,3,1,12,05,24,181,33,13,73,077,36,15,66,306,38,17,12,105,35*7D
$GPGSV,3,2,12,18,19,312,32,20,47,240,34,24,33,261,31,28,37,050,35*77
$GPGSV,3,3,12,30,11,064,27,12,02,201,,19,03,127,,21,02,281,*79
$GLGSV,3,1,10,10,49,241,32,06,19,153,30,09,64,022,32,07,71,172,33*69
$GLGSV,3,2,10,08,48,320,33,18,05,050,,16,13,042,,11,00,000,*6A
$GLGSV,3,3,10,01,03,327,,17,04,004,*66
$GPGSA,A,3,05,13,15,17,18,20,24,28,30,,,,1.1,0.8,0.8*33
$GNGSA,A,3,70,71,73,74,,,,,,,,,1.1,0.8,0.8*2A
$GPVTG,184.3,T,184.3,M,2.4,N,4.5,K,D*21
$GPRMC,184628.00,A,4316.177768,N,00256.213327,W,2.4,184.3,231117,3.1,W,D*33
$GPGGA,184628.00,4316.177768,N,00256.213327,W,2,09,0.8,17.0,M,51.0,M,,*40
$GPGSV,3,1,12,05,24,181,33,13,73,077,37,15,66,306,35,17,12,105,37*73
$GPGSV,3,2,12,18,19,312,31,20,47,240,24,24,33,261,33,28,37,050,36*74
$GPGSV,3,3,12,30,11,064,31,12,02,201,,19,03,127,,21,02,281,*7E
$GLGSV,3,1,10,10,49,241,35,06,19,153,33,09,64,022,34,07,71,172,33*6B
$GLGSV,3,2,10,08,48,320,31,18,05,050,,16,13,042,,11,00,000,*68
$GLGSV,3,3,10,01,03,327,,17,04,004,*66
$GPGSA,A,3,05,13,15,17,18,20,24,28,30,,,,1.1,0.8,0.8*33
$GNGSA,A,3,70,71,73,74,,,,,,,,,1.1,0.8,0.8*2A
$GPVTG,194.8,T,194.8,M,2.4,N,4.5,K,D*21
$GPRMC,184629.00,A,4316.177105,N,00256.213395,W,2.4,194.8,231117,3.1,W,D*3C
$GPGGA,184629.00,4316.177105,N,00256.213395,W,2,09,0.8,17.0,M,51.0,M,,*45
$GPGSV,3,1,12,05,24,181,33,13,73,077,37,15,66,306,35,17,12,105,37*73
$GPGSV,3,2,12,18,19,312,31,20,47,240,24,24,33,261,33,28,37,050,36*74
$GPGSV,3,3,12,30,11,064,31,12,02,201,,19,03,127,,21,02,281,*7E
$GLGSV,3,1,10,10,49,241,35,06,19,153,33,09,64,022,34,07,71,172,33*6B
$GLGSV,3,2,10,08,48,320,31,18,05,050,,16,13,042,,11,00,000,*68
$GLGSV,3,3,10,01,03,327,,17,04,004,*66
$GPGSA,A,3,05,13,15,17,18,20,24,28,30,,,,1.1,0.8,0.8*33
$GNGSA,A,3,70,71,73,74,,,,,,,,,1.1,0.8,0.8*2A
$GPVTG,186.5,T,186.5,M,2.5,N,4.6,K,D*23
$GPRMC,184630.00,A,4316.176429,N,00256.213468,W,2.5,186.5,231117,3.1,W,D*34
$GPGGA,184630.00,4316.176429,N,00256.213468,W,2,09,0.8,17.0,M,51.0,M,,*42
$GPGSV,3,1,12,05,24,181,39,13,73,077,36,15,66,306,35,17,12,105,31*7E
$GPGSV,3,2,12,18,19,312,28,19,03,127,27,20,47,240,33,24,33,261,34*79
$GPGSV,3,3,12,28,37,050,35,30,11,064,33,12,02,201,,21,02,281,*7E
$GLGSV,3,1,10,10,49,241,31,06,19,153,29,09,64,022,31,07,71,172,33*61
$GLGSV,3,2,10,08,48,320,31,18,05,050,,16,13,042,,11,00,000,*68
$GLGSV,3,3,10,01,03,327,,17,04,004,*66
$GPGSA,A,3,05,13,15,17,18,20,24,28,30,,,,1.1,0.8,0.8*33
$GNGSA,A,3,70,71,73,74,,,,,,,,,1.1,0.8,0.8*2A
$GPVTG,185.6,T,185.6,M,2.2,N,4.1,K,D*23
$GPRMC,184631.00,A,4316.175962,N,00256.213557,W,2.2,185.6,231117,3.1,W,D*3E
$GPGGA,184631.00,4316.175962,N,00256.213557,W,2,09,0.8,17.0,M,51.0,M,,*4F
$GPGSV,3,1,12,05,24,181,38,13,73,077,36,15,66,306,35,17,12,105,31*7F
$GPGSV,3,2,12,18,19,312,28,19,03,127,27,20,47,240,35,24,33,261,33*78
$GPGSV,3,3,12,28,37,050,34,30,11,064,32,12,02,201,,21,02,281,*7E
$GLGSV,3,1,10,10,49,241,30,06,19,153,26,09,64,022,30,07,71,172,32*6F
$GLGSV,3,2,10,08,48,320,33,18,05,050,,16,13,042,,11,00,000,*6A
$GLGSV,3,3,10,01,03,327,,17,04,004,*66
$GPGSA,A,3,05,13,15,17,18,20,24,28,30,,,,1.1,0.8,0.8*33
$GNGSA,A,3,70,71,73,74,,,,,,,,,1.1,0.8,0.8*2A
$GPVTG,192.1,T,192.1,M,2.1,N,3.8,K,D*2E
$GPRMC,184632.00,A,4316.175491,N,00256.213677,W,2.1,192.1,231117,3.1,W,D*3F
$GPGGA,184632.00,4316.175491,N,00256.213677,W,2,09,0.8,17.0,M,51.0,M,,*4C
$GPGSV,3,1,12,05,24,181,38,13,73,077,36,15,66,306,35,17,12,105,31*7F
$GPGSV,3,2,12,18,19,312,28,19,03,127,27,20,47,240,35,24,33,261,33*78
$GPGSV,3,3,12,28,37,050,34,30,11,064,32,12,02,201,,21,02,281,*7E
$GLGSV,3,1,10,10,49,241,30,06,19,153,26,09,64,022,30,07,71,172,32*6F
$GLGSV,3,2,10,08,48,320,33,18,05,050,,16,13,042,,11,00,000,*6A
$GLGSV,3,3,10,01,03,327,,17,04,004,*66
$GPGSA,A,3,05,13,15,17,18,20,24,28,30,,,,1.1,0.8,0.8*33
$GNGSA,A,3,70,71,73,74,,,,,,,,,1.1,0.8,0.8*2A
$GPVTG,206.4,T,206.4,M,2.0,N,3.7,K,D*20
$GPRMC,184633.00,A,4316.175060,N,00256.213959,W,2.0,206.4,231117,3.1,W,D*3D
$GPGGA,184633.00,4316.175060,N,00256.213959,W,2,09,0.8,17.0,M,51.0,M,,*44
$GPGSV,3,1,12,05,24,181,37,13,73,077,35,15,66,306,38,17,12,105,35*7A
$GPGSV,3,2,12,18,19,312,35,19,03,127,26,20,47,240,36,24,33,261,32*77
$GPGSV,3,3,12,28,37,050,32,30,11,064,35,12,02,201,,21,02,281,*7F
$GLGSV,3,1,10,10,49,241,33,06,19,153,28,09,64,022,33,07,71,172,32*61
$GLGSV,3,2,10,08,48,320,29,18,05,050,,16,13,042,,11,00,000,*61
$GLGSV,3,3,10,01,03,327,,17,04,004,*66
$GPGSA,A,3,05,13,15,17,18,20,24,28,30,,,,1.1,0.8,0.8*33
$GNGSA,A,3,70,71,73,74,,,,,,,,,1.1,0.8,0.8*2A
$GPVTG,206.6,T,206.6,M,2.0,N,3.7,K,D*20
$GPRMC,184634.00,A,4316.174494,N,00256.214278,W,2.0,206.6,231117,3.1,W,D*39
$GPGGA,184634.00,4316.174494,N,00256.214278,W,2,09,0.8,18.0,M,51.0,M,,*4D
$GPGSV,3,1,12,05,24,181,34,13,73,077,33,15,66,306,37,17,12,105,34*71
$GPGSV,3,2,12,18,19,312,32,19,03,127,27,20,47,240,34,24,33,261,30*71
$GPGSV,3,3,12,28,37,050,33,30,11,064,33,12,02,201,,21,02,281,*78
$GLGSV,3,1,10,10,49,241,33,06,19,153,26,09,64,022,32,07,71,172,34*68
$GLGSV,3,2,10,08,48,320,31,18,05,050,,16,13,042,,11,00,000,*68
$GLGSV,3,3,10,01,03,327,,17,04,004,*66
$GPGSA,A,3,05,13,15,17,18,20,24,28,30,,,,1.1,0.8,0.8*33
$GNGSA,A,3,70,71,73,74,,,,,,,,,1.1,0.8,0.8*2A
$GPVTG,199.9,T,199.9,M,1.5,N,2.7,K,D*27
$GPRMC,184635.00,A,4316.174031,N,00256.214563,W,1.5,199.9,231117,3.1,W,D*32
$GPGGA,184635.00,4316.174031,N,00256.214563,W,2,09,0.8,18.0,M,51.0,M,,*4A
$GPGSV,3,1,12,05,24,181,38,13,73,077,34,15,66,306,33,17,12,105,33*79
$GPGSV,3,2,12,18,19,312,33,19,03,127,26,20,47,240,34,24,33,261,33*72
$GPGSV,3,3,12,28,37,050,33,30,11,064,33,12,02,201,,21,02,281,*78
$GLGSV,3,1,10,10,49,241,33,06,19,153,29,09,64,022,34,07,71,172,30*65
$GLGSV,3,2,10,08,48,320,29,18,05,050,,16,13,042,,11,00,000,*61
$GLGSV,3,3,10,01,03,327,,17,04,004,*66
$GPGSA,A,3,05,13,15,17,18,20,24,28,30,,,,1.1,0.8,0.8*33
$GNGSA,A,3,70,71,73,74,,,,,,,,,1.1,0.8,0.8*2A
$GPVTG,189.8,T,189.8,M,2.6,N,4.8,K,D*2E
$GPRMC,184636.00,A,4316.173416,N,00256.214835,W,2.6,189.8,231117,3.1,W,D*39
$GPGGA,184636.00,4316.173416,N,00256.214835,W,2,09,0.8,18.0,M,51.0,M,,*41
$GPGSV,3,1,12,05,24,181,35,13,73,077,32,15,66,306,36,17,12,105,34*70
$GPGSV,3,2,12,18,19,312,34,19,03,127,23,20,47,240,29,24,33,261,33*7C
$GPGSV,3,3,12,28,37,050,34,30,11,064,32,12,02,201,,21,02,281,*7E
$GLGSV,3,1,10,10,49,241,32,06,19,153,26,09,64,022,33,16,13,042,22*69
$GLGSV,3,2,10,07,71,172,37,08,48,320,33,18,05,050,,11,00,000,*68
$GLGSV,3,3,10,01,03,327,,17,04,004,*66
$GPGSA,A,3,05,13,15,17,18,20,24,28,30,,,,1.1,0.8,0.8*33
$GNGSA,A,3,70,71,73,74,,,,,,,,,1.1,0.8,0.8*2A
$GPVTG,194.6,T,194.6,M,2.5,N,4.6,K,D*23
$GPRMC,184637.00,A,4316.172705,N,00256.215127,W,2.5,194.6,231117,3.1,W,D*32
$GPGGA,184637.00,4316.172705,N,00256.215127,W,2,09,0.8,18.0,M,51.0,M,,*4B
$GPGSV,3,1,12,05,24,181,35,13,73,077,32,15,66,306,36,17,12,105,34*70
$GPGSV,3,2,12,18,19,312,34,19,03,127,23,20,47,240,29,24,33,261,33*7C
$GPGSV,3,3,12,28,37,050,34,30,11,064,32,12,02,201,,21,02,281,*7E
$GLGSV,3,1,10,10,49,241,32,06,19,153,26,09,64,022,33,16,13,042,22*69
$GLGSV,3,2,10,07,71,172,37,08,48,320,33,18,05,050,,11,00,000,*68
$GLGSV,3,3,10,01,03,327,,17,04,004,*66
$GPGSA,A,3,05,13,15,17,18,20,24,28,30,,,,1.1,0.8,0.8*33
$GNGSA,A,3,70,71,73,74,,,,,,,,,1.1,0.8,0.8*2A
$GPVTG,198.9,T,198.9,M,2.5,N,4.6,K,D*23
$GPRMC,184638.00,A,4316.172029,N,00256.215472,W,2.5,198.9,231117,3.1,W,D*32
$GPGGA,184638.00,4316.172029,N,00256.215472,W,2,09,0.8,18.0,M,51.0,M,,*48
$GPGSV,3,1,11,05,24,181,35,13,73,077,32,15,66,306,35,17,12,105,27*72
$GPGSV,3,2,11,18,19,312,32,20,47,240,28,24,33,261,33,28,37,050,31*7F
$GPGSV,3,3,11,30,11,064,35,12,02,201,,21,02,281,*46
$GLGSV,3,1,10,10,49,241,32,06,19,153,27,09,64,022,34,07,71,172,35*6F
$GLGSV,3,2,10,08,48,320,29,18,05,050,,16,13,042,,11,00,000,*61
$GLGSV,3,3,10,01,03,327,,17,04,004,*66
$GPGSA,A,3,05,13,15,17,18,20,24,28,30,,,,1.1,0.8,0.8*33
$GNGSA,A,3,70,71,73,74,,,,,,,,,1.1,0.8,0.8*2A
$GPVTG,195.3,T,195.3,M,1.9,N,3.5,K,D*28
$GPRMC,184639.00,A,4316.171447,N,00256.215678,W,1.9,195.3,231117,3.1,W,D*3C
$GPGGA,184639.00,4316.171447,N,00256.215678,W,2,09,0.8,17.0,M,51.0,M,,*41
$GPGSV,3,1,12,05,24,181,37,13,73,077,32,15,66,306,35,17,12,105,31*74
$GPGSV,3,2,12,18,19,312,29,20,47,240,31,24,33,261,32,28,37,050,27*78
$GPGSV,3,3,12,30,11,064,38,12,02,201,,19,03,127,,21,02,281,*77
$GLGSV,3,1,10,10,49,241,36,06,19,153,30,09,64,022,30,07,71,172,35*69
$GLGSV,3,2,10,08,48,320,33,18,05,050,,16,13,042,,11,00,000,*6A
$GLGSV,3,3,10,01,03,327,,17,04,004,*66
$GPGSA,A,3,05,13,15,17,18,20,24,28,30,,,,1.1,0.8,0.8*33
$GNGSA,A,3,70,71,73,74,,,,,,,,,1.1,0.8,0.8*2A
$GPVTG,195.3,T,195.3,M,1.9,N,3.5,K,D*28
$GPRMC,184640.00,A,4316.170959,N,00256.215879,W,1.9,195.3,231117,3.1,W,D*3E
$GPGGA,184640.00,4316.170959,N,00256.215879,W,2,09,0.8,18.0,M,51.0,M,,*4C
$GPGSV,3,1,12,05,24,181,36,13,73,077,33,15,66,306,35,17,12,105,30*75
$GPGSV,3,2,12,18,19,312,31,20,47,240,30,24,33,261,32,28,37,050,33*75
$GPGSV,3,3,12,30,11,064,34,12,02,201,,19,03,127,,21,02,281,*7B
$GLGSV,3,1,10,10,49,241,35,06,19,153,25,09,64,022,29,07,71,172,36*65
$GLGSV,3,2,10,08,48,320,32,18,05,050,,16,13,042,,11,00,000,*6B
$GLGSV,3,3,10,01,03,327,,17,04,004,*66
$GPGSA,A,3,05,13,15,17,18,20,24,28,30,,,,1.1,0.8,0.8*33
$GNGSA,A,3,70,71,73,74,,,,,,,,,1.1,0.8,0.8*2A
$GPVTG,186.6,T,186.6,M,2.6,N,4.8,K,D*2E
$GPRMC,184641.00,A,4316.170319,N,00256.215939,W,2.6,186.6,231117,3.1,W,D*3F
$GPGGA,184641.00,4316.170319,N,00256.215939,W,2,09,0.8,18.0,M,51.0,M,,*46
$GPGSV,3,1,12,05,24,181,32,13,73,077,32,15,66,306,34,17,12,105,31*70
$GPGSV,3,2,12,18,19,312,34,20,47,240,34,24,33,261,29,28,37,050,31*7C
$GPGSV,3,3,12,30,11,064,30,12,02,201,,19,03,127,,21,02,281,*7F
$GLGSV,3,1,10,10,49,241,35,06,19,153,32,09,64,022,33,07,71,172,34*6A
$GLGSV,3,2,10,08,48,320,34,18,05,050,,16,13,042,,11,00,000,*6D
$GLGSV,3,3,10,01,03,327,,17,04,004,*66
$GPGSA,A,3,05,13,15,17,18,20,24,28,30,,,,1.1,0.8,0.8*33
$GNGSA,A,3,70,71,73,74,,,,,,,,,1.1,0.8,0.8*2A
$GPVTG,182.9,T,182.9,M,2.7,N,5.0,K,D*26
$GPRMC,184642.00,A,4316.169521,N,00256.215944,W,2.7,182.9,231117,3.1,W,D*39
$GPGGA,184642.00,4316.169521,N,00256.215944,W,2,09,0.8,18.0,M,51.0,M,,*4A
$GPGSV,3,1,12,05,24,181,29,13,73,077,36,15,66,306,38,17,12,105,33*70
$GPGSV,3,2,12,18,19,312,33,20,47,240,37,24,33,261,35,28,37,050,31*75
$GPGSV,3,3,12,30,11,064,29,12,02,201,,19,03,127,,21,02,281,*77
$GLGSV,3,1,10,10,49,241,38,06,19,153,29,09,64,022,32,07,71,172,40*6F
$GLGSV,3,2,10,08,48,320,33,18,05,050,,16,13,042,,11,00,000,*6A
$GLGSV,3,3,10,01,03,327,,17,04,004,*66
$GPGSA,A,3,05,13,15,17,18,20,24,28,30,,,,1.1,0.8,0.8*33
$GNGSA,A,3,70,71,73,74,,,,,,,,,1.1,0.8,0.8*2A
$GPVTG,183.9,T,183.9,M,2.6,N,4.9,K,D*2F
$GPRMC,184643.00,A,4316.168745,N,00256.216047,W,2.6,183.9,231117,3.1,W,D*30
$GPGGA,184643.00,4316.168745,N,00256.216047,W,2,09,0.8,18.0,M,51.0,M,,*43
$GPGSV,3,1,12,05,24,181,33,13,73,077,33,15,66,306,35,17,12,105,37*77
$GPGSV,3,2,12,18,19,312,32,20,47,240,33,24,33,261,34,28,37,050,30*70
$GPGSV,3,3,12,30,11,064,23,12,02,201,,19,03,127,,21,02,281,*7D
$GLGSV,3,1,10,10,49,241,37,06,19,153,26,09,64,022,35,07,71,172,37*68
$GLGSV,3,2,10,08,48,320,27,18,05,050,,16,13,042,,11,00,000,*6F
$GLGSV,3,3,10,01,03,327,,17,04,004,*66
$GPGSA,A,3,05,13,15,17,18,20,24,28,30,,,,1.1,0.8,0.8*33
$GNGSA,A,3,70,71,73,74,,,,,,,,,1.1,0.8,0.8*2A
$GPVTG,191.4,T,191.4,M,2.6,N,4.8,K,D*2E
$GPRMC,184644.00,A,4316.167978,N,00256.216221,W,2.6,191.4,231117,3.1,W,D*34
$GPGGA,184644.00,4316.167978,N,00256.216221,W,2,09,0.8,18.0,M,51.0,M,,*49
$GPGSV,3,1,12,05,24,181,35,13,73,077,35,15,66,306,35,17,12,105,34*74
$GPGSV,3,2,12,18,19,312,33,20,47,240,34,24,33,261,31,28,37,050,29*7B
$GPGSV,3,3,12,30,11,064,24,12,02,201,,19,03,127,,21,02,281,*7A
$GLGSV,3,1,10,10,49,241,36,06,19,153,27,09,64,022,29,07,71,172,36*64
$GLGSV,3,2,10,08,48,320,24,18,05,050,,16,13,042,,11,00,000,*6C
$GLGSV,3,3,10,01,03,327,,17,04,004,*66
$GPGSA,A,3,05,13,15,17,18,20,24,28,30,,,,1.1,0.8,0.8*33
$GNGSA,A,3,70,71,73,74,,,,,,,,,1.1,0.8,0.8*2A
$GPVTG,194.4,T,194.4,M,2.3,N,4.2,K,D*21
$GPRMC,184645.00,A,4316.167325,N,00256.216515,W,2.3,194.4,231117,3.1,W,D*37
$GPGGA,184645.00,4316.167325,N,00256.216515,W,2,09,0.8,18.0,M,51.0,M,,*4A
$GPGSV,3,1,12,05,24,181,33,13,73,077,34,15,66,306,33,17,12,105,36*77
$GPGSV,3,2,12,18,19,312,29,20,47,240,26,24,33,261,33,28,37,050,29*71
$GPGSV,3,3,12,30,11,064,24,12,02,201,,19,03,127,,21,02,281,*7A
$GLGSV,3,1,09,10,49,241,33,06,19,153,32,09,64,022,33,07,71,172,39*69
$GLGSV,3,2,09,18,05,050,,16,13,042,,11,00,000,,01,03,327,*63
$GLGSV,3,3,09,17,04,004,*5A
$GPGSA,A,3,05,13,15,17,18,20,24,28,30,,,,1.1,0.8,0.8*33
$GNGSA,A,3,70,71,73,74,,,,,,,,,1.1,0.8,0.8*2A
$GPVTG,194.3,T,194.3,M,2.0,N,3.7,K,D*20
$GPRMC,184646.00,A,4316.166783,N,00256.216780,W,2.0,194.3,231117,3.1,W,D*37
$GPGGA,184646.00,4316.166783,N,00256.216780,W,2,09,0.8,18.0,M,51.0,M,,*4E
$GPGSV,3,1,12,05,24,181,28,13,73,077,32,15,66,306,36,17,12,105,38*70
$GPGSV,3,2,12,18,19,312,31,20,47,240,29,24,33,261,33,28,37,050,32*7D
$GPGSV,3,3,12,30,11,064,25,12,02,201,,19,03,127,,21,02,281,*7B
$GLGSV,3,1,10,10,49,241,34,06,19,153,28,09,64,022,32,07,71,172,41*63
$GLGSV,3,2,10,08,48,320,30,18,05,050,,16,13,042,,11,00,000,*69
$GLGSV,3,3,10,01,03,327,,17,04,004,*66
$GPGSA,A,3,05,13,15,17,18,20,24,28,30,,,,1.1,0.8,0.8*33
$GNGSA,A,3,70,71,73,74,,,,,,,,,1.1,0.8,0.8*2A
$GPVTG,205.2,T,205.2,M,2.4,N,4.4,K,D*20
$GPRMC,184647.00,A,4316.166204,N,00256.217116,W,2.4,205.2,231117,3.1,W,D*3A
$GPGGA,184647.00,4316.166204,N,00256.217116,W,2,09,0.8,18.0,M,51.0,M,,*4D
$GPGSV,3,1,12,05,24,181,32,13,73,077,33,15,66,306,33,17,12,105,39*7E
$GPGSV,3,2,12,18,19,312,33,20,47,240,26,24,33,261,31,28,37,050,31*71
$GPGSV,3,3,12,30,11,064,31,12,02,201,,19,03,127,,21,02,281,*7E
$GLGSV,3,1,10,10,49,241,33,06,19,153,29,09,64,022,32,07,71,172,39*6A
$GLGSV,3,2,10,08,48,320,30,18,05,050,,16,13,042,,11,00,000,*69
$GLGSV,3,3,10,01,03,327,,17,04,004,*66
$GPGSA,A,3,05,13,15,17,18,20,24,28,30,,,,1.1,0.8,0.8*33
$GNGSA,A,3,70,71,73,74,,,,,,,,,1.1,0.8,0.8*2A
$GPVTG,205.1,T,205.1,M,1.9,N,3.5,K,D*28
$GPRMC,184648.00,A,4316.165634,N,00256.217404,W,1.9,205.1,231117,3.1,W,D*3A
$GPGGA,184648.00,4316.165634,N,00256.217404,W,2,09,0.8,18.0,M,51.0,M,,*40
$GPGSV,3,1,12,05,24,181,41,13,73,077,36,15,66,306,37,17,12,105,39*7B
$GPGSV,3,2,12,18,19,312,29,20,47,240,35,24,33,261,24,28,37,050,31*7C
$GPGSV,3,3,12,30,11,064,32,12,02,201,,19,03,127,,21,02,281,*7D
$GLGSV,3,1,10,10,49,241,33,06,19,153,30,09,64,022,33,07,71,172,36*6C
$GLGSV,3,2,10,08,48,320,33,18,05,050,,16,13,042,,11,00,000,*6A
$GLGSV,3,3,10,01,03,327,,17,04,004,*66
$GPGSA,A,3,05,13,15,17,18,20,24,28,30,,,,1.1,0.8,0.8*33
$GNGSA,A,3,70,71,73,74,,,,,,,,,1.1,0.8,0.8*2A
$GPVTG,202.5,T,202.5,M,2.0,N,3.7,K,D*20
$GPRMC,184649.00,A,4316.165081,N,00256.217746,W,2.0,202.5,231117,3.1,W,D*3F
$GPGGA,184649.00,4316.165081,N,00256.217746,W,2,09,0.8,18.0,M,51.0,M,,*4C
$GPGSV,3,1,12,05,24,181,39,13,73,077,34,15,66,306,36,17,12,105,38*76
$GPGSV,3,2,12,18,19,312,33,20,47,240,35,24,33,261,32,28,37,050,31*70
$GPGSV,3,3,12,30,11,064,28,12,02,201,,19,03,127,,21,02,281,*76
$GLGSV,3,1,10,10,49,241,34,06,19,153,28,09,64,022,28,16,13,042,25*6C
$GLGSV,3,2,10,07,71,172,36,08,48,320,34,18,05,050,,11,00,000,*6E
$GLGSV,3,3,10,01,03,327,,17,04,004,*66
$GPGSA,A,3,05,13,15,17,18,20,24,28,30,,,,1.1,0.8,0.8*33
$GNGSA,A,3,70,71,73,74,,,,,,,,,1.1,0.8,0.8*2A
$GPVTG,197.5,T,197.5,M,2.4,N,4.5,K,D*21
$GPRMC,184650.00,A,4316.164455,N,00256.218034,W,2.4,197.5,231117,3.1,W,D*3D
$GPGGA,184650.00,4316.164455,N,00256.218034,W,2,09,0.8,18.0,M,51.0,M,,*45
$GPGSV,3,1,12,05,24,181,39,13,73,077,36,15,66,306,33,17,12,105,37*7E
$GPGSV,3,2,12,18,19,312,35,20,47,240,32,24,33,261,31,28,37,050,30*73
$GPGSV,3,3,12,30,11,064,33,12,02,201,,19,03,127,,21,02,281,*7C
$GLGSV,3,1,10,10,49,241,33,06,19,153,29,09,64,022,36,16,13,042,25*65
$GLGSV,3,2,10,07,71,172,35,08,48,320,32,18,05,050,,11,00,000,*6B
$GLGSV,3,3,10,01,03,327,,17,04,004,*66
$GPGSA,A,3,05,13,15,17,18,20,24,28,30,,,,1.1,0.8,0.8*33
$GNGSA,A,3,70,71,73,74,,,,,,,,,1.1,0.8,0.8*2A
$GPVTG,190.7,T,190.7,M,2.4,N,4.4,K,D*20
$GPRMC,184651.00,A,4316.163786,N,00256.218177,W,2.4,190.7,231117,3.1,W,D*35
$GPGGA,184651.00,4316.163786,N,00256.218177,W,2,09,0.8,18.0,M,51.0,M,,*48
$GPGSV,3,1,12,05,24,181,37,13,73,077,36,15,66,306,30,17,12,105,35*71
$GPGSV,3,2,12,18,19,312,32,20,47,240,30,24,33,261,28,28,37,050,26*79
$GPGSV,3,3,12,30,11,064,26,12,02,201,,19,03,127,,21,02,281,*78
$GLGSV,3,1,10,10,49,241,28,06,19,153,25,09,64,022,33,16,13,042,26*65
$GLGSV,3,2,10,07,71,172,31,08,48,320,30,18,05,050,,11,00,000,*6D
$GLGSV,3,3,10,01,03,327,,17,04,004,*66
$GPGSA,A,3,05,13,15,17,18,20,24,28,30,,,,1.1,0.8,0.8*33
$GNGSA,A,3,70,71,73,74,,,,,,,,,1.1,0.8,0.8*2A
$GPVTG,194.1,T,194.1,M,1.9,N,3.5,K,D*28
$GPRMC,184652.00,A,4316.163174,N,00256.218256,W,1.9,194.1,231117,3.1,W,D*31
$GPGGA,184652.00,4316.163174,N,00256.218256,W,2,09,0.8,18.0,M,51.0,M,,*40
$GPGSV,3,1,12,05,24,181,34,13,73,077,34,15,66,306,36,17,12,105,38*7B
$GPGSV,3,2,12,18,19,312,35,20,47,240,34,24,33,261,31,28,37,050,28*7C
$GPGSV,3,3,12,30,11,064,30,12,02,201,,19,03,127,,21,02,281,*7F
$GLGSV,3,1,10,10,49,241,34,06,19,153,24,09,64,022,31,16,13,042,27*6A
$GLGSV,3,2,10,07,71,172,36,08,48,320,30,18,05,050,,11,00,000,*6A
$GLGSV,3,3,10,01,03,327,,17,04,004,*66
$GPGSA,A,3,05,13,15,17,18,20,24,28,30,,,,1.1,0.8,0.8*33
$GNGSA,A,3,70,71,73,74,,,,,,,,,1.1,0.8,0.8*2A
$GPVTG,189.2,T,189.2,M,2.3,N,4.3,K,D*20
$GPRMC,184653.00,A,4316.162594,N,00256.218346,W,2.3,189.2,231117,3.1,W,D*3D
$GPGGA,184653.00,4316.162594,N,00256.218346,W,2,09,0.8,18.0,M,51.0,M,,*4A
$GPGSV,3,1,11,05,24,181,37,13,73,077,35,15,66,306,37,17,12,105,36*75
$GPGSV,3,2,11,18,19,312,31,20,47,240,36,28,37,050,35,30,11,064,28*7F
$GPGSV,3,3,11,12,02,201,,19,03,127,,21,02,281,*4E
$GLGSV,3,1,09,10,49,241,30,06,19,153,29,09,64,022,33,07,71,172,36*6F
$GLGSV,3,2,09,08,48,320,32,18,05,050,,11,00,000,,01,03,327,*64
$GLGSV,3,3,09,17,04,004,*5A
$GPGSA,A,3,05,13,15,17,18,20,28,30,,,,,1.1,0.8,0.8*35
$GNGSA,A,3,70,71,73,74,,,,,,,,,1.1,0.8,0.8*2A
$GPVTG,183.9,T,183.9,M,3.1,N,5.8,K,D*29
$GPRMC,184654.00,A,4316.161867,N,00256.218369,W,3.1,183.9,231117,3.1,W,D*37
$GPGGA,184654.00,4316.161867,N,00256.218369,W,2,08,0.8,19.0,M,51.0,M,,*42
$GPGSV,3,1,12,05,24,181,38,13,73,077,36,15,66,306,33,17,12,105,36*7E
$GPGSV,3,2,12,18,19,312,32,20,47,240,33,24,33,261,33,28,37,050,34*73
$GPGSV,3,3,12,30,11,064,31,12,02,201,,19,03,127,,21,02,281,*7E
$GLGSV,3,1,10,10,49,241,31,06,19,153,26,09,64,022,34,07,71,172,32*6A
$GLGSV,3,2,10,08,48,320,31,18,05,050,,16,13,042,,11,00,000,*68
$GLGSV,3,3,10,01,03,327,,17,04,004,*66
$GPGSA,A,3,05,13,15,17,18,20,24,28,30,,,,1.1,0.8,0.8*33
$GNGSA,A,3,70,71,73,74,,,,,,,,,1.1,0.8,0.8*2A
$GPVTG,183.3,T,183.3,M,2.6,N,4.9,K,D*2F
$GPRMC,184655.00,A,4316.161126,N,00256.218420,W,2.6,183.3,231117,3.1,W,D*3C
$GPGGA,184655.00,4316.161126,N,00256.218420,W,2,09,0.8,19.0,M,51.0,M,,*44
$GPGSV,3,1,12,05,24,181,34,13,73,077,35,15,66,306,36,17,12,105,37*75
$GPGSV,3,2,12,18,19,312,34,20,47,240,32,24,33,261,29,28,37,050,32*79
$GPGSV,3,3,12,30,11,064,25,12,02,201,,19,03,127,,21,02,281,*7B
$GLGSV,3,1,10,10,49,241,35,06,19,153,23,09,64,022,30,07,71,172,35*68
$GLGSV,3,2,10,08,48,320,29,18,05,050,,16,13,042,,11,00,000,*61
$GLGSV,3,3,10,01,03,327,,17,04,004,*66
$GPGSA,A,3,05,13,15,17,18,20,24,28,30,,,,1.1,0.8,0.8*33
$GNGSA,A,3,70,71,73,74,,,,,,,,,1.1,0.8,0.8*2A
$GPVTG,184.0,T,184.0,M,2.5,N,4.7,K,D*22
$GPRMC,184656.00,A,4316.160467,N,00256.218444,W,2.5,184.0,231117,3.1,W,D*3B
$GPGGA,184656.00,4316.160467,N,00256.218444,W,2,09,0.8,19.0,M,51.0,M,,*44
$GPGSV,3,1,12,05,24,181,31,13,73,077,35,15,66,306,37,17,12,105,34*72
$GPGSV,3,2,12,18,19,312,31,20,47,240,31,24,33,261,33,28,37,050,31*77
$GPGSV,3,3,12,30,11,064,30,12,02,201,,19,03,127,,21,02,281,*7F
$GLGSV,3,1,10,10,49,241,36,06,19,153,29,09,64,022,33,16,13,042,24*64
$GLGSV,3,2,10,07,71,172,36,08,48,320,27,18,05,050,,11,00,000,*6C
$GLGSV,3,3,10,01,03,327,,17,04,004,*66
$GPGSA,A,3,05,13,15,17,18,20,24,28,30,,,,1.1,0.8,0.8*33
$GNGSA,A,3,70,71,73,74,,,,,,,,,1.1,0.8,0.8*2A
$GPVTG,190.9,T,190.9,M,2.2,N,4.1,K,D*23
$GPRMC,184657.00,A,4316.159803,N,00256.218573,W,2.2,190.9,231117,3.1,W,D*30
$GPGGA,184657.00,4316.159803,N,00256.218573,W,2,09,0.8,19.0,M,51.0,M,,*44
$GPGSV,3,1,12,05,24,181,36,13,73,077,35,15,66,306,36,17,12,105,36*76
$GPGSV,3,2,12,18,19,312,33,20,47,240,31,24,33,261,34,28,37,050,29*7B
$GPGSV,3,3,12,30,11,064,25,12,02,201,,19,03,127,,21,02,281,*7B
$GLGSV,3,1,09,10,49,241,38,06,19,153,27,09,64,022,31,07,71,172,36*6B
$GLGSV,3,2,09,08,48,320,28,18,05,050,,11,00,000,,01,03,327,*6F
$GLGSV,3,3,09,17,04,004,*5A
$GPGSA,A,3,05,13,15,17,18,20,24,28,30,,,,1.1,0.8,0.8*33
$GNGSA,A,3,70,71,73,74,,,,,,,,,1.1,0.8,0.8*2A
$GPVTG,201.6,T,201.6,M,2.2,N,4.1,K,D*23
$GPRMC,184658.00,A,4316.159188,N,00256.218788,W,2.2,201.6,231117,3.1,W,D*37
$GPGGA,184658.00,4316.159188,N,00256.218788,W,2,09,0.8,18.0,M,51.0,M,,*46
$GPGSV,3,1,12,05,24,181,31,13,73,077,30,15,66,306,34,17,12,105,36*76
$GPGSV,3,2,12,18,19,312,31,20,47,240,34,24,33,261,36,28,37,050,24*73
$GPGSV,3,3,12,30,11,064,25,12,02,201,,19,03,127,,21,02,281,*7B
$GLGSV,3,1,10,10,49,241,37,06,19,153,29,09,64,022,34,07,71,172,38*69
$GLGSV,3,2,10,08,48,320,33,18,05,050,,16,13,042,,11,00,000,*6A
$GLGSV,3,3,10,01,03,327,,17,04,004,*66
$GPGSA,A,3,05,13,15,17,18,20,24,28,30,,,,1.1,0.8,0.8*33
$GNGSA,A,3,70,71,73,74,,,,,,,,,1.1,0.8,0.8*2A
$GPVTG,195.3,T,195.3,M,2.4,N,4.4,K,D*20
$GPRMC,184659.00,A,4316.158581,N,00256.219020,W,2.4,195.3,231117,3.1,W,D*33
$GPGGA,184659.00,4316.158581,N,00256.219020,W,2,09,0.8,17.0,M,51.0,M,,*40
$GPGSV,3,1,12,05,24,181,37,13,73,077,33,15,66,306,36,17,12,105,33*74
$GPGSV,3,2,12,18,19,312,31,20,47,240,39,24,33,261,34,28,37,050,26*7E
$GPGSV,3,3,12,30,11,064,32,12,02,201,,19,03,127,,21,02,281,*7D
$GLGSV,3,1,10,10,49,241,35,06,19,153,27,09,64,022,31,07,71,172,35*6D
$GLGSV,3,2,10,08,48,320,28,18,05,050,,16,13,042,,11,00,000,*60
$GLGSV,3,3,10,01,03,327,,17,04,004,*66
$GPGSA,A,3,05,13,15,17,18,20,24,28,30,,,,1.1,0.8,0.8*33
$GNGSA,A,3,70,71,73,74,,,,,,,,,1.1,0.8,0.8*2A
$GPVTG,201.3,T,201.3,M,1.7,N,3.2,K,D*21
$GPRMC,184700.00,A,4316.158050,N,00256.219223,W,1.7,201.3,231117,3.1,W,D*38
$GPGGA,184700.00,4316.158050,N,00256.219223,W,2,09,0.8,17.0,M,51.0,M,,*45
$GPGSV,3,1,12,05,24,181,28,13,73,077,33,15,66,306,30,17,12,105,39*76
$GPGSV,3,2,12,18,19,312,34,20,47,240,35,24,33,261,35,28,37,050,30*71
$GPGSV,3,3,12,30,11,064,29,12,02,201,,19,03,127,,21,02,281,*77
$GLGSV,3,1,10,10,49,241,35,06,19,153,25,09,64,022,33,07,71,172,35*6D
$GLGSV,3,2,10,08,48,320,31,18,05,050,,16,13,042,,11,00,000,*68
$GLGSV,3,3,10,01,03,327,,17,04,004,*66
$GPGSA,A,3,05,13,15,17,18,20,24,28,30,,,,1.1,0.8,0.8*33
$GNGSA,A,3,70,71,73,74,,,,,,,,,1.1,0.8,0.8*2A
$GPVTG,201.3,T,201.3,M,2.1,N,3.9,K,D*2F
$GPRMC,184701.00,A,4316.157551,N,00256.219365,W,2.1,201.3,231117,3.1,W,D*34
$GPGGA,184701.00,4316.157551,N,00256.219365,W,2,09,0.8,18.0,M,51.0,M,,*43
$GPGSV,3,1,12,05,24,181,26,13,73,077,32,15,66,306,34,17,12,105,34*70
$GPGSV,3,2,12,18,19,312,32,20,47,240,29,24,33,261,35,28,37,050,27*7C
$GPGSV,3,3,12,30,11,064,32,12,02,201,,19,03,127,,21,02,281,*7D
$GLGSV,3,1,10,10,49,241,31,06,19,153,33,09,64,022,31,07,71,172,38*61
$GLGSV,3,2,10,08,48,320,34,18,05,050,,16,13,042,,11,00,000,*6D
$GLGSV,3,3,10,01,03,327,,17,04,004,*66
$GPGSA,A,3,05,13,15,17,18,20,24,28,30,,,,1.1,0.8,0.8*33
$GNGSA,A,3,70,71,73,74,,,,,,,,,1.1,0.8,0.8*2A
$GPVTG,194.2,T,194.2,M,2.1,N,3.9,K,D*2F
$GPRMC,184702.00,A,4316.157038,N,00256.219565,W,2.1,194.2,231117,3.1,W,D*35
$GPGGA,184702.00,4316.157038,N,00256.219565,W,2,09,0.8,17.0,M,51.0,M,,*43
$GPGSV,3,1,12,05,24,181,33,13,73,077,33,15,66,306,38,17,12,105,37*7A
$GPGSV,3,2,12,18,19,312,34,20,47,240,31,24,33,261,30,28,37,050,28*79
$GPGSV,3,3,12,30,11,064,30,12,02,201,,19,03,127,,21,02,281,*7F
$GLGSV,3,1,10,10,49,241,30,06,19,153,32,09,64,022,33,07,71,172,36*6D
$GLGSV,3,2,10,08,48,320,33,18,05,050,,16,13,042,,11,00,000,*6A
$GLGSV,3,3,10,01,03,327,,17,04,004,*66
$GPGSA,A,3,05,13,15,17,18,20,24,28,30,,,,1.1,0.8,0.8*33
$GNGSA,A,3,70,71,73,74,,,,,,,,,1.1,0.8,0.8*2A
$GPVTG,192.7,T,192.7,M,2.5,N,4.6,K,D*23
$GPRMC,184703.00,A,4316.156381,N,00256.219767,W,2.5,192.7,231117,3.1,W,D*33
$GPGGA,184703.00,4316.156381,N,00256.219767,W,2,09,0.8,17.0,M,51.0,M,,*42
$GPGSV,3,1,12,05,24,181,36,13,73,077,34,15,66,306,38,17,12,105,34*7B
$GPGSV,3,2,12,18,19,312,34,20,47,240,33,24,33,261,29,28,37,050,26*7D
$GPGSV,3,3,12,30,11,064,31,12,02,201,,19,03,127,,21,02,281,*7E
$GLGSV,3,1,10,10,49,241,37,06,19,153,30,09,64,022,32,07,71,172,36*69
$GLGSV,3,2,10,08,48,320,33,18,05,050,,16,13,042,,11,00,000,*6A
$GLGSV,3,3,10,01,03,327,,17,04,004,*66
$GPGSA,A,3,05,13,15,17,18,20,24,28,30,,,,1.1,0.8,0.8*33
$GNGSA,A,3,70,71,73,74,,,,,,,,,1.1,0.8,0.8*2A
$GPVTG,200.1,T,200.1,M,1.9,N,3.5,K,D*28
$GPRMC,184704.00,A,4316.155802,N,00256.219948,W,1.9,200.1,231117,3.1,W,D*35
$GPGGA,184704.00,4316.155802,N,00256.219948,W,2,09,0.8,17.0,M,51.0,M,,*45
$GPGSV,3,1,12,05,24,181,36,13,73,077,34,15,66,306,38,17,12,105,34*7B
$GPGSV,3,2,12,18,19,312,34,20,47,240,33,24,33,261,29,28,37,050,26*7D
$GPGSV,3,3,12,30,11,064,31,12,02,201,,19,03,127,,21,02,281,*7E
$GLGSV,3,1,10,10,49,241,37,06,19,153,30,09,64,022,32,07,71,172,36*69
$GLGSV,3,2,10,08,48,320,33,18,05,050,,16,13,042,,11,00,000,*6A
$GLGSV,3,3,10,01,03,327,,17,04,004,*66
$GPGSA,A,3,05,13,15,17,18,20,24,28,30,,,,1.1,0.8,0.8*33
$GNGSA,A,3,70,71,73,74,,,,,,,,,1.1,0.8,0.8*2A
$GPVTG,200.1,T,200.1,M,1.9,N,3.5,K,D*28
$GPRMC,184705.00,A,4316.155307,N,00256.220145,W,1.9,200.1,231117,3.1,W,D*35
$GPGGA,184705.00,4316.155307,N,00256.220145,W,2,09,0.8,17.0,M,51.0,M,,*45
$GPGSV,3,1,12,05,24,181,38,13,73,077,32,15,66,306,31,17,12,105,36*78
$GPGSV,3,2,12,18,19,312,34,20,47,240,35,24,33,261,29,28,37,050,29*74
$GPGSV,3,3,12,30,11,064,29,12,02,201,,19,03,127,,21,02,281,*77
$GLGSV,3,1,10,10,49,241,27,06,19,153,32,09,64,022,32,07,71,172,34*68
$GLGSV,3,2,10,08,48,320,30,18,05,050,,16,13,042,,11,00,000,*69
$GLGSV,3,3,10,01,03,327,,17,04,004,*66
$GPGSA,A,3,05,13,15,17,18,20,24,28,30,,,,1.1,0.8,0.8*33
$GNGSA,A,3,70,71,73,74,,,,,,,,,1.1,0.8,0.8*2A
$GPVTG,176.7,T,176.7,M,2.5,N,4.6,K,D*23
$GPRMC,184706.00,A,4316.154717,N,00256.220302,W,2.5,176.7,231117,3.1,W,D*38
$GPGGA,184706.00,4316.154717,N,00256.220302,W,2,09,0.8,18.0,M,51.0,M,,*4C
$GPGSV,3,1,12,05,24,181,40,13,73,077,33,15,66,306,34,17,12,105,32*77
$GPGSV,3,2,12,18,19,312,29,20,47,240,32,24,33,261,32,28,37,050,32*7F
$GPGSV,3,3,12,30,11,064,27,12,02,201,,19,03,127,,21,02,281,*79
$GLGSV,3,1,10,10,49,241,34,06,19,153,32,09,64,022,31,07,71,172,38*65
$GLGSV,3,2,10,08,48,320,29,18,05,050,,16,13,042,,11,00,000,*61
$GLGSV,3,3,10,01,03,327,,17,04,004,*66
$GPGSA,A,3,05,13,15,17,18,20,24,28,30,,,,1.1,0.8,0.8*33
$GNGSA,A,3,70,71,73,74,,,,,,,,,1.1,0.8,0.8*2A
$GPVTG,181.7,T,181.7,M,3.1,N,5.7,K,D*26
$GPRMC,184707.00,A,4316.153895,N,00256.220380,W,3.1,181.7,231117,3.1,W,D*3C
$GPGGA,184707.00,4316.153895,N,00256.220380,W,2,09,0.8,17.0,M,51.0,M,,*4A
$GPGSV,3,1,12,05,24,181,38,13,73,077,31,15,66,306,34,17,12,105,33*7B
$GPGSV,3,2,12,18,19,312,33,20,47,240,31,24,33,261,30,28,37,050,29*7F
$GPGSV,3,3,12,30,11,064,31,12,02,201,,19,03,127,,21,02,281,*7E
$GLGSV,3,1,10,10,49,241,33,06,19,153,28,09,64,022,30,07,71,172,38*68
$GLGSV,3,2,10,08,48,320,26,18,05,050,,16,13,042,,11,00,000,*6E
$GLGSV,3,3,10,01,03,327,,17,04,004,*66
$GPGSA,A,3,05,13,15,17,18,20,24,28,30,,,,1.1,0.8,0.8*33
$GNGSA,A,3,70,71,73,74,,,,,,,,,1.1,0.8,0.8*2A
$GPVTG,182.8,T,182.8,M,2.8,N,5.1,K,D*28
$GPRMC,184708.00,A,4316.153060,N,00256.220425,W,2.8,182.8,231117,3.1,W,D*3D
$GPGGA,184708.00,4316.153060,N,00256.220425,W,2,09,0.8,17.0,M,51.0,M,,*4F
$GPGSV,3,1,12,05,24,181,27,13,73,077,34,15,66,306,35,17,12,105,35*77
$GPGSV,3,2,12,18,19,312,34,20,47,240,30,24,33,261,35,28,37,050,26*73
$GPGSV,3,3,12,30,11,064,30,12,02,201,,19,03,127,,21,02,281,*7F
$GLGSV,3,1,10,10,49,241,38,06,19,153,26,09,64,022,32,07,71,172,37*60
$GLGSV,3,2,10,08,48,320,30,18,05,050,,16,13,042,,11,00,000,*69
$GLGSV,3,3,10,01,03,327,,17,04,004,*66
$GPGSA,A,3,05,13,15,17,18,20,24,28,30,,,,1.1,0.8,0.8*33
$GNGSA,A,3,70,71,73,74,,,,,,,,,1.1,0.8,0.8*2A
$GPVTG,185.1,T,185.1,M,2.6,N,4.8,K,D*2E
$GPRMC,184709.00,A,4316.152309,N,00256.220450,W,2.6,185.1,231117,3.1,W,D*33
$GPGGA,184709.00,4316.152309,N,00256.220450,W,2,09,0.8,16.0,M,51.0,M,,*40
$GPGSV,3,1,12,05,24,181,30,13,73,077,33,15,66,306,34,17,12,105,34*76
$GPGSV,3,2,12,18,19,312,32,20,47,240,33,24,33,261,36,28,37,050,30*72
$GPGSV,3,3,12,30,11,064,29,12,02,201,,19,03,127,,21,02,281,*77
$GLGSV,3,1,10,10,49,241,36,06,19,153,26,09,64,022,34,07,71,172,33*6C
$GLGSV,3,2,10,08,48,320,28,18,05,050,,16,13,042,,11,00,000,*60
$GLGSV,3,3,10,01,03,327,,17,04,004,*66
$GPGSA,A,3,05,13,15,17,18,20,24,28,30,,,,1.1,0.8,0.8*33
$GNGSA,A,3,70,71,73,74,,,,,,,,,1.1,0.8,0.8*2A
$GPVTG,187.7,T,187.7,M,2.0,N,3.7,K,D*20
$GPRMC,184710.00,A,4316.151644,N,00256.220626,W,2.0,187.7,231117,3.1,W,D*35
$GPGGA,184710.00,4316.151644,N,00256.220626,W,2,09,0.8,16.0,M,51.0,M,,*44
$GPGSV,3,1,11,13,73,077,33,15,66,306,36,17,12,105,36,18,19,312,29*77
$GPGSV,3,2,11,20,47,240,32,24,33,261,33,28,37,050,28,30,11,064,24*7B
$GPGSV,3,3,11,12,02,201,,19,03,127,,21,02,281,*4E
$GLGSV,3,1,10,10,49,241,35,06,19,153,25,09,64,022,31,07,71,172,36*6C
$GLGSV,3,2,10,08,48,320,29,18,05,050,,16,13,042,,11,00,000,*61
$GLGSV,3,3,10,01,03,327,,17,04,004,*66
$GPGSA,A,3,13,15,17,18,20,24,28,30,,,,,1.1,0.8,0.8*36
$GNGSA,A,3,70,71,73,74,,,,,,,,,1.1,0.8,0.8*2A
$GPVTG,182.9,T,182.9,M,2.3,N,4.2,K,D*21
$GPRMC,184711.00,A,4316.151002,N,00256.220796,W,2.3,182.9,231117,3.1,W,D*32
$GPGGA,184711.00,4316.151002,N,00256.220796,W,2,08,0.8,16.0,M,51.0,M,,*4A
$GPGSV,3,1,12,05,24,181,35,13,73,077,32,15,66,306,33,17,12,105,34*75
$GPGSV,3,2,12,18,19,312,30,20,47,240,33,24,33,261,32,28,37,050,28*7D
$GPGSV,3,3,12,30,11,064,30,12,02,201,,19,03,127,,21,02,281,*7F
$GLGSV,3,1,09,10,49,241,36,09,64,022,30,07,71,172,35,08,48,320,33*6E
$GLGSV,3,2,09,18,05,050,,16,13,042,,11,00,000,,01,03,327,*63
$GLGSV,3,3,09,17,04,004,*5A
$GPGSA,A,3,05,13,15,17,18,20,24,28,30,,,,1.1,0.8,0.8*33
$GNGSA,A,2,71,73,74,,,,,,,,,,1.1,0.8,0.8*2C
$GPVTG,194.1,T,194.1,M,2.2,N,4.0,K,D*22
$GPRMC,184712.00,A,4316.150392,N,00256.220984,W,2.2,194.1,231117,3.1,W,D*39
$GPGGA,184712.00,4316.150392,N,00256.220984,W,2,09,0.8,16.0,M,51.0,M,,*4E
$GPGSV,3,1,12,05,24,181,31,13,73,077,34,15,66,306,38,17,12,105,35*7D
$GPGSV,3,2,12,18,19,312,35,20,47,240,29,24,33,261,27,28,37,050,30*7E
$GPGSV,3,3,12,30,11,064,28,12,02,201,,19,03,127,,21,02,281,*76
$GLGSV,3,1,10,10,49,241,33,06,19,153,29,09,64,022,32,07,71,172,34*67
$GLGSV,3,2,10,08,48,320,35,18,05,050,,16,13,042,,11,00,000,*6C
$GLGSV,3,3,10,01,03,327,,17,04,004,*66
$GPGSA,A,3,05,13,15,17,18,20,24,28,30,,,,1.1,0.8,0.8*33
$GNGSA,A,3,70,71,73,74,,,,,,,,,1.1,0.8,0.8*2A
$GPVTG,197.5,T,197.5,M,2.6,N,4.9,K,D*2F
$GPRMC,184713.00,A,4316.149701,N,00256.221261,W,2.6,197.5,231117,3.1,W,D*3C
$GPGGA,184713.00,4316.149701,N,00256.221261,W,2,09,0.8,15.0,M,51.0,M,,*4B
$GPGSV,3,1,12,05,24,181,29,13,73,077,32,15,66,306,38,17,12,105,37*70
$GPGSV,3,2,12,18,19,312,34,20,47,240,35,24,33,261,29,28,37,050,29*74
$GPGSV,3,3,12,30,11,064,27,12,02,201,,19,03,127,,21,02,281,*79
$GLGSV,3,1,10,10,49,241,36,06,19,153,29,09,64,022,33,07,71,172,35*62
$GLGSV,3,2,10,08,48,320,34,18,05,050,,16,13,042,,11,00,000,*6D
$GLGSV,3,3,10,01,03,327,,17,04,004,*66
$GPGSA,A,3,05,13,15,17,18,20,24,28,30,,,,1.1,0.8,0.8*33
$GNGSA,A,3,70,71,73,74,,,,,,,,,1.1,0.8,0.8*2A
$GPVTG,194.4,T,194.4,M,2.1,N,4.0,K,D*21
$GPRMC,184714.00,A,4316.149067,N,00256.221577,W,2.1,194.4,231117,3.1,W,D*39
$GPGGA,184714.00,4316.149067,N,00256.221577,W,2,09,0.8,15.0,M,51.0,M,,*4B
$GPGSV,3,1,12,05,24,181,34,13,73,077,32,15,66,306,38,17,12,105,37*7C
$GPGSV,3,2,12,18,19,312,32,20,47,240,32,24,33,261,30,28,37,050,29*7D
$GPGSV,3,3,12,30,11,064,30,12,02,201,,19,03,127,,21,02,281,*7F
$GLGSV,3,1,10,10,49,241,34,06,19,153,30,09,64,022,31,07,71,172,35*6A
$GLGSV,3,2,10,08,48,320,32,18,05,050,,16,13,042,,11,00,000,*6B
$GLGSV,3,3,10,01,03,327,,17,04,004,*66
$GPGSA,A,3,05,13,15,17,18,20,24,28,30,,,,1.1,0.8,0.8*33
$GNGSA,A,3,70,71,73,74,,,,,,,,,1.1,0.8,0.8*2A
$GPVTG,191.2,T,191.2,M,2.3,N,4.3,K,D*20
$GPRMC,184715.00,A,4316.148471,N,00256.221812,W,2.3,191.2,231117,3.1,W,D*35
$GPGGA,184715.00,4316.148471,N,00256.221812,W,2,09,0.8,15.0,M,51.0,M,,*46
$GPGSV,3,1,12,05,24,181,37,13,73,077,37,15,66,306,34,17,12,105,36*77
$GPGSV,3,2,12,18,19,312,33,20,47,240,31,24,33,261,31,28,37,050,32*74
$GPGSV,3,3,12,30,11,064,27,12,02,201,,19,03,127,,21,02,281,*79
$GLGSV,3,1,10,10,49,241,33,06,19,153,30,09,64,022,34,07,71,172,34*69
$GLGSV,3,2,10,08,48,320,30,18,05,050,,16,13,042,,11,00,000,*69
$GLGSV,3,3,10,01,03,327,,17,04,004,*66
$GPGSA,A,3,05,13,15,17,18,20,24,28,30,,,,1.1,0.8,0.8*33
$GNGSA,A,3,70,71,73,74,,,,,,,,,1.1,0.8,0.8*2A
$GPVTG,156.3,T,156.3,M,2.6,N,4.9,K,D*2F
$GPRMC,184716.00,A,4316.147754,N,00256.221808,W,2.6,156.3,231117,3.1,W,D*39
$GPGGA,184716.00,4316.147754,N,00256.221808,W,2,09,0.8,16.0,M,51.0,M,,*46
$GPGSV,3,1,12,05,24,181,39,13,73,077,37,15,66,306,36,17,12,105,36*7B
$GPGSV,3,2,12,18,19,312,30,20,47,240,34,24,33,261,33,28,37,050,32*70
$GPGSV,3,3,12,30,11,064,28,12,02,201,,19,03,127,,21,02,281,*76
$GLGSV,3,1,10,10,49,241,32,06,19,153,35,09,64,022,34,07,71,172,37*6E
$GLGSV,3,2,10,08,48,320,34,18,05,050,,16,13,042,,11,00,000,*6D
$GLGSV,3,3,10,01,03,327,,17,04,004,*66
$GPGSA,A,3,05,13,15,17,18,20,24,28,30,,,,1.1,0.8,0.8*33
$GNGSA,A,3,70,71,73,74,,,,,,,,,1.1,0.8,0.8*2A
$GPVTG,160.3,T,160.3,M,2.4,N,4.5,K,D*21
$GPRMC,184717.00,A,4316.146986,N,00256.221577,W,2.4,160.3,231117,3.1,W,D*3A
$GPGGA,184717.00,4316.146986,N,00256.221577,W,2,09,0.8,16.0,M,51.0,M,,*42
$GPGSV,3,1,11,05,24,181,36,13,73,077,33,15,66,306,29,17,12,105,32*79
$GPGSV,3,2,11,18,19,312,36,24,33,261,30,28,37,050,28,30,11,064,29*77
$GPGSV,3,3,11,12,02,201,,19,03,127,,21,02,281,*4E
$GLGSV,3,1,10,10,49,241,36,06,19,153,30,09,64,022,32,07,71,172,36*68
$GLGSV,3,2,10,08,48,320,34,18,05,050,,16,13,042,,11,00,000,*6D
$GLGSV,3,3,10,01,03,327,,17,04,004,*66
$GPGSA,A,3,05,13,15,17,18,24,28,30,,,,,1.1,0.8,0.8*31
$GNGSA,A,3,70,71,73,74,,,,,,,,,1.1,0.8,0.8*2A
$GPVTG,162.5,T,162.5,M,2.9,N,5.4,K,D*2C
$GPRMC,184718.00,A,4316.146214,N,00256.221283,W,2.9,162.5,231117,3.1,W,D*30
$GPGGA,184718.00,4316.146214,N,00256.221283,W,2,08,0.8,16.0,M,51.0,M,,*40
$GPGSV,3,1,12,05,24,181,33,13,73,077,34,15,66,306,32,17,12,105,31*71
$GPGSV,3,2,12,18,19,312,34,20,47,240,30,24,33,261,29,28,37,050,26*7E
$GPGSV,3,3,12,30,11,064,31,12,02,201,,19,03,127,,21,02,281,*7E
$GLGSV,3,1,10,10,49,241,36,06,19,153,30,09,64,022,33,07,71,172,37*68
$GLGSV,3,2,10,08,48,320,34,18,05,050,,16,13,042,,11,00,000,*6D
$GLGSV,3,3,10,01,03,327,,17,04,004,*66
$GPGSA,A,3,05,13,15,17,18,20,24,28,30,,,,1.1,0.8,0.8*33
$GNGSA,A,3,70,71,73,74,,,,,,,,,1.1,0.8,0.8*2A
$GPVTG,164.3,T,164.3,M,2.4,N,4.4,K,D*20
$GPRMC,184719.00,A,4316.145483,N,00256.221069,W,2.4,164.3,231117,3.1,W,D*31
$GPGGA,184719.00,4316.145483,N,00256.221069,W,2,09,0.8,15.0,M,51.0,M,,*4E
